time_s,time_us,iTOW,fTOW,week,gpsFix,flags,ecefX,ecefY,ecefZ,pAcc,ecefVX,ecefVY,ecefVZ,sAcc,pDOP,reserved1,numSV,seq,srcSystem,srcComponent,time_gregorian,log_timestamp,log_timestamp_gregorian,lat,lon,h
1601800043,337000,30443000,-377317,2126,3,221,267039395,231939068,528990926,1028,1,2,3,96,186,0,10,7,11,0,2020-10-04T11:27:23,1601673970.717309,2020-10-03T00:26:10,56.40943617130874,40.976192636372794,131.20800740973917
1601800047,325000,30448000,-369445,2126,3,221,267039387,231939166,528990857,1089,-7,-1,-8,111,185,0,10,24,11,0,2020-10-04T11:27:27,1601673978.275157,2020-10-03T00:26:18,56.40942838738405,40.976205471395076,130.955351325398
1601800057,166000,30457000,-355175,2126,3,221,267039308,231939046,528990792,1105,-21,-13,10,56,185,0,10,40,11,0,2020-10-04T11:27:37,1601673983.771196,2020-10-03T00:26:23,56.40943550642354,40.97619918722496,129.64855964699737
1601800061,312000,30461000,-348760,2126,3,221,267039282,231939013,528990771,1092,3,-7,15,92,185,0,10,56,11,0,2020-10-04T11:27:41,1601673988.4368758,2020-10-03T00:26:28,56.409437550343505,40.97619791318151,129.24530376906702
1601800066,301000,30466000,-340640,2126,3,221,267039276,231938994,528990745,1116,12,4,3,80,185,0,10,72,11,0,2020-10-04T11:27:46,1601673992.8976638,2020-10-03T00:26:32,56.40943752946196,40.97619622685122,128.93472785975896
1601800069,178000,30470000,-334039,2126,3,221,267039282,231938993,528990713,1110,0,-5,0,62,185,0,10,89,11,0,2020-10-04T11:27:49,1601674000.5257049,2020-10-03T00:26:40,56.409435649707085,40.97619546721361,128.68959778872883
1601800077,177000,30478000,-320529,2126,3,221,267039272,231938976,528990635,1094,1,-3,-3,101,185,0,10,103,11,0,2020-10-04T11:27:57,1601674005.6258879,2020-10-03T00:26:45,56.40943317299119,40.976194450372766,127.93640345381444
1601800083,164000,30483000,-312070,2126,3,221,267039217,231938932,528990584,1081,-4,-4,8,78,185,0,10,118,11,0,2020-10-04T11:28:03,1601674010.5690758,2020-10-03T00:26:50,56.409435903873806,40.97619491151923,127.12220434758366
1601800086,309000,30487000,-305308,2126,3,221,267039141,231938887,528990504,1106,-1,-6,-9,108,185,0,10,131,11,0,2020-10-04T11:28:06,1601674014.842532,2020-10-03T00:26:54,56.409438429009136,40.97619748105576,125.97508732916572
1601800092,298000,30492000,-296951,2126,3,221,267039117,231938864,528990421,1102,-10,-4,-17,101,185,0,10,147,11,0,2020-10-04T11:28:12,1601674019.713089,2020-10-03T00:26:59,56.409436788916196,40.97619721754946,125.09999712153048
1601800097,264000,30497000,-288687,2126,3,221,267039187,231938928,528990529,1120,-6,-1,9,90,185,0,10,163,11,0,2020-10-04T11:28:17,1601674027.3964238,2020-10-03T00:27:07,56.409435061789466,40.97619760902253,126.52422664447845
1601800106,399000,30506000,-273550,2126,3,221,267039221,231938961,528990647,1096,4,-2,12,100,184,0,10,181,11,0,2020-10-04T11:28:26,1601674033.6900609,2020-10-03T00:27:13,56.40943738551648,40.97619803328064,127.76892029184056
1601800110,276000,30510000,-266595,2126,3,221,267039243,231938966,528990663,1094,2,3,7,110,184,0,10,194,11,0,2020-10-04T11:28:30,1601674038.180276,2020-10-03T00:27:18,56.40943669265119,40.97619630786181,128.01223533724954
1601800115,237000,30515000,-257783,2126,3,221,267039236,231938932,528990641,1053,2,3,1,85,184,0,10,210,11,0,2020-10-04T11:28:35,1601674043.1368089,2020-10-03T00:27:23,56.409437662828466,40.976192893277975,127.67638385544954
1601800120,225000,30520000,-248812,2126,3,221,267039194,231938924,528990626,1105,-10,-4,-6,93,184,0,10,226,11,0,2020-10-04T11:28:40,1601674047.739101,2020-10-03T00:27:27,56.40943968214022,40.97619637626611,127.34697569139252
1601800129,334000,30529000,-232507,2126,3,221,267039184,231938816,528990502,1139,-8,3,-11,94,184,0,10,243,11,0,2020-10-04T11:28:49,1601674056.036424,2020-10-03T00:27:36,56.409439383977265,40.97618423026462,125.88045314024869
1601800133,211000,30533000,-225184,2126,3,221,267039107,231938765,528990429,1147,-21,-22,-30,131,184,0,10,2,11,0,2020-10-04T11:28:53,1601674060.766577,2020-10-03T00:27:40,56.40944260772675,40.97618617223145,124.76570238806642
1601800119,197000,30538000,-215991,2126,3,221,267039276,231938809,528990525,1217,49,19,36,115,184,0,10,18,11,0,2020-10-04T11:28:39,1601674065.835872,2020-10-03T00:27:45,56.40943567400096,40.976173601639495,126.43093186419297
1601800124,157000,30543000,-206710,2126,3,221,267039346,231938843,528990509,1200,9,13,12,100,193,0,9,36,11,0,2020-10-04T11:28:44,1601674073.4576888,2020-10-03T00:27:53,56.40942925755769,40.9761703241651,126.71338793735057
1601800132,179000,30551000,-191851,2126,3,221,267039310,231938881,528990491,1219,14,17,15,114,184,0,10,50,11,0,2020-10-04T11:28:52,1601674078.072389,2020-10-03T00:27:58,56.40942853236742,40.976178795540676,126.55093637299328
1601800137,195000,30556000,-182502,2126,3,221,267039589,231939009,528990543,1221,43,10,57,123,184,0,10,64,11,0,2020-10-04T11:28:57,1601674082.836609,2020-10-03T00:28:02,56.409409079037026,40.97616481348583,128.61385500330968
1601800141,338000,30560000,-174897,2126,3,221,267039652,231939024,528990617,1241,17,9,27,133,183,0,10,80,11,0,2020-10-04T11:29:01,1601674088.0045888,2020-10-03T00:28:08,56.409408461703585,40.976159955909175,129.54785258199018
1601800146,297000,30565000,-165339,2126,3,221,267039515,231938933,528990579,1175,-7,-5,12,65,183,0,10,94,11,0,2020-10-04T11:29:06,1601674092.3178248,2020-10-03T00:28:12,56.40941877544836,40.97616337931582,128.328919733199
1601800151,284000,30570000,-155782,2126,3,221,267039541,231938962,528990596,1214,-14,1,5,72,183,0,10,112,11,0,2020-10-04T11:29:11,1601674098.045481,2020-10-03T00:28:18,56.40941672901111,40.97616416416927,128.68434341466664
1601800160,413000,30579000,-138374,2126,3,221,267039385,231938862,528990480,1264,-1,8,6,95,201,0,8,128,11,0,2020-10-04T11:29:20,1601674105.849817,2020-10-03T00:28:25,56.409424681911794,40.97616850513274,126.70364720578308
1601800164,261000,30583000,-130528,2126,3,221,267039361,231938859,528990461,1229,-16,21,5,65,183,0,10,144,11,0,2020-10-04T11:29:24,1601674110.718737,2020-10-03T00:28:30,56.409425240568616,40.97617068759304,126.43424367714171
1601800169,247000,30588000,-120742,2126,3,221,267039387,231938958,528990415,1173,11,23,18,102,183,0,10,160,11,0,2020-10-04T11:29:29,1601674115.471169,2020-10-03T00:28:35,56.40941663004032,40.9761800333358,126.51882545935182
1601800174,232000,30593000,-110842,2126,3,221,267039381,231938956,528990354,1191,37,-11,-43,87,183,0,10,175,11,0,2020-10-04T11:29:34,1601674120.156637,2020-10-03T00:28:40,56.409414036217754,40.9761804260779,125.9783703062308
1601800178,376000,30597000,-102892,2126,3,221,267039364,231938973,528990381,1195,21,-21,34,93,183,0,10,193,11,0,2020-10-04T11:29:38,1601674127.626276,2020-10-03T00:28:47,56.4094155039303,40.97618431094454,126.193950025426
1601800187,207000,30606000,-84459,2126,3,221,267039378,231939003,528990523,1226,0,5,7,105,183,0,10,211,11,0,2020-10-04T11:29:47,1601674133.434532,2020-10-03T00:28:53,56.40942029687244,40.97618649277217,127.54414320857067
1601800191,348000,30610000,-76044,2126,3,221,267039493,231939045,528990636,1263,22,-1,4,109,200,0,8,225,11,0,2020-10-04T11:29:51,1601674137.79776,2020-10-03T00:28:57,56.409417355820636,40.97617941364345,129.11817252994928
1601800196,328000,30615000,-65349,2126,3,221,267039500,231939070,528990655,1288,-24,-5,-13,113,192,0,9,241,11,0,2020-10-04T11:29:56,1601674142.5084,2020-10-03T00:29:02,56.40941667809098,40.97618172754061,129.39638218687983
1601800204,316000,30623000,-47874,2126,3,221,267039743,231939159,528990877,1347,32,16,42,146,191,0,9,1,11,0,2020-10-04T11:30:04,1601674149.898337,2020-10-03T00:29:09,56.40940961773578,40.976166799888674,132.5835608604995
1601800209,298000,30628000,-36646,2126,3,221,267039963,231939307,528991011,1364,24,2,27,127,281,0,7,15,11,0,2020-10-04T11:30:09,1601674154.424465,2020-10-03T00:29:14,56.40939658981429,40.976161530979375,135.15566721059005
1601800214,279000,30633000,-25154,2126,3,221,267040008,231939317,528990975,1374,57,-5,8,102,207,0,8,33,11,0,2020-10-04T11:30:14,1601674160.3776078,2020-10-03T00:29:20,56.40939176900031,40.9761579739308,135.08002633887756
1601800219,233000,30638000,-13423,2126,3,221,267040004,231939248,528990905,1357,-3,-21,15,61,191,0,9,49,11,0,2020-10-04T11:30:19,1601674165.231329,2020-10-03T00:29:25,56.40939190178468,40.97614996024504,134.22988211063543
1601800223,373000,30642000,-3879,2126,3,221,267040140,231939302,528991037,1343,39,23,47,149,281,0,7,65,11,0,2020-10-04T11:30:23,1601674170.019165,2020-10-03T00:29:30,56.40938813002349,40.97614211803972,136.09343588004373
1601800237,173000,30656000,30740,2126,3,221,267039925,231939250,528990919,1347,-12,-1,1,92,178,0,9,96,11,0,2020-10-04T11:30:37,1601674183.517228,2020-10-03T00:29:43,56.4093969611587,40.97615859645136,134.023778364663
1601800241,311000,30660000,40887,2126,3,221,267039977,231939230,528990931,1297,45,15,16,138,164,0,10,112,11,0,2020-10-04T11:30:41,1601674187.852181,2020-10-03T00:29:47,56.40939560155811,40.97615062689488,134.26838385675214
1601800246,288000,30665000,53703,2126,3,221,267040292,231939333,528991016,1247,53,18,24,118,169,0,10,130,11,0,2020-10-04T11:30:46,1601674193.0408568,2020-10-03T00:29:53,56.40937698100372,40.97612976341814,136.66587067214533
1601800255,378000,30674000,77031,2126,3,221,267039977,231939212,528990955,1126,6,8,4,92,177,0,9,148,11,0,2020-10-04T11:30:55,1601674201.465889,2020-10-03T00:30:01,56.40939767701093,40.976148425526354,134.4030038023521
1601800259,248000,30678000,87535,2126,3,221,267039992,231939172,528990944,1101,14,0,18,100,169,0,10,164,11,0,2020-10-04T11:30:59,1601674205.7333648,2020-10-03T00:30:05,56.409398245505855,40.97614194025231,134.2289095602206
1601800264,225000,30683000,100816,2126,3,221,267039907,231939081,528990868,1080,13,2,2,102,160,0,11,180,11,0,2020-10-04T11:31:04,1601674210.389812,2020-10-03T00:30:10,56.40940373425466,40.976139840054536,132.9106347338607
1601800268,363000,30687000,111538,2126,3,221,267039983,231939089,528990860,1060,57,8,10,97,160,0,11,193,11,0,2020-10-04T11:31:08,1601674214.7375438,2020-10-03T00:30:14,56.409398651872515,40.97613274550008,133.19046768360445
1601800273,313000,30692000,125121,2126,3,221,267039841,231939082,528990718,1062,11,-12,-1,50,168,0,10,213,11,0,2020-10-04T11:31:13,1601674222.437984,2020-10-03T00:30:22,56.40939996004286,40.976146973066875,131.38906404133866
1601800282,157000,30701000,149806,2126,3,221,267039698,231939053,528990742,999,15,2,12,99,168,0,10,229,11,0,2020-10-04T11:31:22,1601674227.541549,2020-10-03T00:30:27,56.4094106517,40.976158616302186,130.886468905371
1601800286,292000,30705000,160925,2126,3,221,267039741,231939081,528990766,1032,44,7,23,142,168,0,10,247,11,0,2020-10-04T11:31:26,1601674232.9603648,2020-10-03T00:30:32,56.40940804196373,40.97615747306628,131.36758412768265
1601800291,240000,30710000,174995,2126,3,221,267039860,231939152,528990814,1164,23,-1,44,135,177,0,9,5,11,0,2020-10-04T11:31:31,1601674237.2283049,2020-10-03T00:30:37,56.409400222828175,40.97615351571228,132.52207398695683
1601800299,241000,30718000,197723,2126,3,221,267039973,231939191,528990897,1317,-7,22,0,99,168,0,10,20,11,0,2020-10-04T11:31:39,1601674245.413528,2020-10-03T00:30:45,56.409396051345816,40.97614628215448,133.82696218736135
1601800304,218000,30723000,211974,2126,3,221,267039701,231939073,528990759,1370,-20,-34,-8,129,168,0,10,36,11,0,2020-10-04T11:31:44,1601674250.4364488,2020-10-03T00:30:50,56.40941034579781,40.97616074359997,131.11317069404637
1601800309,167000,30728000,226343,2126,3,221,267039798,231939073,528990700,1387,-3,-4,-14,104,168,0,10,52,11,0,2020-10-04T11:31:49,1601674255.720701,2020-10-03T00:30:55,56.40940193583191,40.976150439969395,131.0268603538034
1601800314,410000,30733000,240850,2126,3,221,267039682,231938991,528990551,1335,-29,3,-13,126,168,0,10,68,11,0,2020-10-04T11:31:54,1601674260.606024,2020-10-03T00:31:00,56.40940510691547,40.97615273337214,129.00365189535714
1601800318,279000,30737000,252540,2126,3,221,267039558,231938945,528990413,1396,-12,-20,-21,148,177,0,9,83,11,0,2020-10-04T11:31:58,1601674265.1993039,2020-10-03T00:31:05,56.4094075103699,40.976160279304125,127.16926481716575
1601800323,256000,30742000,267227,2126,3,221,267039448,231938887,528990386,1296,-4,3,13,63,168,0,10,97,11,0,2020-10-04T11:32:03,1601674269.528393,2020-10-03T00:31:09,56.40941522686475,40.97616487053643,126.2744636376007
1601800332,345000,30751000,293994,2126,3,221,267039646,231938951,528990540,1250,34,9,17,131,168,0,10,115,11,0,2020-10-04T11:32:12,1601674277.8205009,2020-10-03T00:31:17,56.409408555874826,40.97615166546572,128.61653179112875
1601800337,321000,30756000,309060,2126,3,221,267039648,231938942,528990574,1265,-2,-6,0,72,168,0,10,129,11,0,2020-10-04T11:32:17,1601674282.667577,2020-10-03T00:31:22,56.40941057372223,40.97615035233408,128.8754584080825
1601800342,270000,30761000,324284,2126,3,221,267039730,231938962,528990599,1268,13,13,-4,95,251,0,8,145,11,0,2020-10-04T11:32:22,1601674287.814592,2020-10-03T00:31:27,56.40940620340938,40.97614408801468,129.49878237125537
1601800346,407000,30765000,336607,2126,3,221,267039590,231938884,528990526,1253,-7,-26,0,74,168,0,10,163,11,0,2020-10-04T11:32:26,1601674296.14704,2020-10-03T00:31:36,56.40941430987804,40.97614941996262,128.02292745750938
1601800355,250000,30774000,364482,2126,3,221,267039470,231938839,528990525,1216,-29,-15,27,92,163,0,10,179,11,0,2020-10-04T11:32:35,1601674301.455572,2020-10-03T00:31:41,56.40942324526597,40.97615666330245,127.35010298016272
1601800360,199000,30779000,380030,2126,3,221,267039436,231938821,528990599,1214,9,4,28,115,163,0,10,193,11,0,2020-10-04T11:32:40,1601674305.561717,2020-10-03T00:31:45,56.40942972530115,40.976158073516004,127.75921203066558
1601800364,335000,30783000,392501,2126,3,221,267039423,231938810,528990591,1162,18,-2,8,82,168,0,10,209,11,0,2020-10-04T11:32:44,1601674310.7583039,2020-10-03T00:31:50,56.409430601667644,40.976158109133436,127.59836306162879
1601800369,310000,30788000,408190,2126,3,221,267039611,231938864,528990746,1198,56,-23,41,125,168,0,10,227,11,0,2020-10-04T11:32:49,1601674318.8290648,2020-10-03T00:31:58,56.409425035712644,40.976144743309895,129.87071205496412
1601800377,311000,30796000,433589,2126,3,221,267039739,231938886,528990781,1218,26,12,24,127,167,0,10,243,11,0,2020-10-04T11:32:57,1601674324.171716,2020-10-03T00:32:04,56.40941846607612,40.97613383732917,130.77673395056541
1601800382,260000,30801000,449655,2126,3,221,267039555,231938855,528990665,1182,-13,1,-7,109,159,0,11,1,11,0,2020-10-04T11:33:02,1601674328.6507728,2020-10-03T00:32:08,56.4094246155587,40.97614959111514,128.92941004872665
1601800387,235000,30806000,465789,2126,3,221,267039455,231938898,528990571,1173,-18,-4,6,79,159,0,11,17,11,0,2020-10-04T11:33:07,1601674333.516217,2020-10-03T00:32:13,56.40942348369862,40.97616547225738,127.88468238036845
1601800392,209000,30811000,482095,2126,3,221,267039455,231938808,528990524,1119,-36,-15,-15,107,167,0,10,33,11,0,2020-10-04T11:33:12,1601674338.3210158,2020-10-03T00:32:18,56.409425563505735,40.97615446539667,127.16665214200553
1601800396,343000,30815000,495184,2126,3,221,267039416,231938795,528990481,1098,-22,-5,-9,108,159,0,11,51,11,0,2020-10-04T11:33:16,1601674345.617308,2020-10-03T00:32:25,56.409426267466024,40.976157018218174,126.59839164339407
1601800405,154000,30824000,-475345,2126,3,221,267039292,231938782,528990477,1010,12,2,14,93,159,0,11,69,11,0,2020-10-04T11:33:25,1601674351.432865,2020-10-03T00:32:31,56.409433709932884,40.97616860000926,125.99996316262643
1601800409,287000,30828000,-462119,2126,3,221,267039287,231938784,528990493,979,7,4,8,93,159,0,11,85,11,0,2020-10-04T11:33:29,1601674356.354461,2020-10-03T00:32:36,56.40943468918651,40.97616937572217,126.11961615055088
1601800414,256000,30833000,-445400,2126,3,221,267039232,231938744,528990465,937,-6,1,2,59,159,0,11,101,11,0,2020-10-04T11:33:34,1601674361.195729,2020-10-03T00:32:41,56.409438366611624,40.97617032605786,125.51152164494957
1601800419,201000,30838000,-428515,2126,3,221,267039234,231938741,528990459,922,-13,-5,-9,93,159,0,11,117,11,0,2020-10-04T11:33:39,1601674365.7484238,2020-10-03T00:32:45,56.409438102707156,40.9761697467159,125.45901103244945
1601800428,303000,30847000,-398122,2126,3,221,267039087,231938723,528990408,949,2,-6,-10,79,159,0,11,137,11,0,2020-10-04T11:33:48,1601674374.487321,2020-10-03T00:32:54,56.409444754273075,40.976183160158826,124.35485692880192
1601800433,247000,30852000,-381413,2126,3,221,267039074,231938736,528990354,956,0,-5,12,54,168,0,10,150,11,0,2020-10-04T11:33:53,1601674378.276528,2020-10-03T00:32:58,56.409442167770074,40.97618613094234,123.89789278863158
1601800437,379000,30856000,-367977,2126,3,221,267039173,231938763,528990430,969,9,8,15,88,159,0,11,166,11,0,2020-10-04T11:33:57,1601674383.624769,2020-10-03T00:33:03,56.40943902786344,40.976178916899784,125.04245676481142
1601800442,350000,30861000,-351061,2126,3,221,267039221,231938775,528990399,974,12,7,10,98,159,0,11,184,11,0,2020-10-04T11:34:02,1601674392.045213,2020-10-03T00:33:12,56.40943418791921,40.97617528576699,125.02825287392209
1601800451,454000,30870000,-320495,2126,3,221,267039101,231938713,528990342,1027,-36,1,-5,101,159,0,11,198,11,0,2020-10-04T11:34:11,1601674396.397625,2020-10-03T00:33:16,56.409441174877465,40.97618045004768,123.82726693796222
1601800455,293000,30874000,-306943,2126,3,221,267039000,231938687,528990308,1047,-30,9,12,68,159,0,11,212,11,0,2020-10-04T11:34:15,1601674401.355121,2020-10-03T00:33:21,56.409446465476776,40.976187998837595,123.02784220947994
1601800460,265000,30879000,-290113,2126,3,221,267039022,231938734,528990346,1005,9,3,11,97,159,0,11,228,11,0,2020-10-04T11:34:20,1601674406.407929,2020-10-03T00:33:26,56.409444805343306,40.97619140995646,123.60679342558524
1601800464,398000,30883000,-276549,2126,3,221,267039091,231938770,528990375,994,17,-3,0,78,167,0,10,246,11,0,2020-10-04T11:34:24,1601674414.2724009,2020-10-03T00:33:34,56.409440583109706,40.976188483296355,124.2671838368143
1601800473,210000,30892000,-245661,2126,3,221,267039036,231938695,528990430,1120,15,16,-2,111,169,0,10,6,11,0,2020-10-04T11:34:33,1601674419.707157,2020-10-03T00:33:39,56.409450101381786,40.97618515318713,124.22351189006778
1601800478,180000,30897000,-228330,2126,3,221,267039074,231938823,528990554,1227,-19,12,9,106,159,0,11,20,11,0,2020-10-04T11:34:38,1601674424.061457,2020-10-03T00:33:44,56.409447836993664,40.976196770912715,125.87954839005833
1601800482,312000,30901000,-214360,2126,3,221,267039070,231938870,528990569,1299,-24,7,27,120,159,0,11,36,11,0,2020-10-04T11:34:42,1601674428.598192,2020-10-03T00:33:48,56.40944650256786,40.97620294383443,126.15830553383564
1601800490,307000,30909000,-186442,2126,3,221,267039070,231938924,528991127,1633,-38,-62,229,210,159,0,11,54,11,0,2020-10-04T11:34:50,1601674436.570549,2020-10-03T00:33:56,56.409471577988846,40.97620954795111,131.00242447514682
1601800495,254000,30914000,-169038,2126,3,221,267038460,231938705,528992225,1802,-293,-17,282,207,158,0,11,68,11,0,2020-10-04T11:34:55,1601674440.710785,2020-10-03T00:34:00,56.40957132820599,40.97624756086607,136.8064461508372
1601800500,229000,30919000,-151753,2126,3,221,267037260,231937527,528993300,2272,-399,-484,337,393,204,0,9,84,11,0,2020-10-04T11:35:00,1601674446.60654,2020-10-03T00:34:06,56.409750303158965,40.9762309613244,136.47532770658444
1601800505,203000,30924000,-134499,2126,3,221,267036605,231936442,528993919,2757,62,50,-52,347,222,0,7,100,11,0,2020-10-04T11:35:05,1601674451.386653,2020-10-03T00:34:11,56.40987127812655,40.97616784321997,134.9595309090837
1601800510,182000,30929000,-117061,2126,3,221,267038206,231938139,528991594,2104,41,40,89,173,249,0,8,115,11,0,2020-10-04T11:35:10,1601674456.2256088,2020-10-03T00:34:16,56.40958208834065,40.97620532058417,128.43577541952237
1601800515,155000,30934000,-99491,2126,3,221,267038672,231938403,528990675,1785,-1,-29,-2,173,158,0,11,131,11,0,2020-10-04T11:35:15,1601674460.7859159,2020-10-03T00:34:20,56.409497157241205,40.976188107293524,123.68461950995477
1601800523,155000,30942000,-71335,2126,3,221,267039018,231938791,528990421,1537,23,-43,10,115,177,0,10,149,11,0,2020-10-04T11:35:23,1601674468.578764,2020-10-03T00:34:28,56.40944596148416,40.9761988058654,124.42163742269828
1601800527,290000,30946000,-57175,2126,3,221,267039077,231938883,528990563,1556,40,72,36,145,186,0,9,165,11,0,2020-10-04T11:35:27,1601674473.452772,2020-10-03T00:34:33,56.40944517137142,40.97620379015146,126.1847267910412
1601800532,237000,30951000,-39364,2126,3,221,267039082,231939104,528990486,1512,-21,-24,45,109,186,0,9,181,11,0,2020-10-04T11:35:32,1601674478.2783399,2020-10-03T00:34:38,56.409430221847764,40.97623028698418,126.36596719218201
1601800540,239000,30959000,-10611,2126,3,221,267039044,231939666,528990597,1388,-2,-4,61,147,176,0,10,201,11,0,2020-10-04T11:35:40,1601674486.945349,2020-10-03T00:34:46,56.409410313738036,40.97630305507934,129.17079207093926
1601800545,213000,30964000,7411,2126,3,221,267038988,231939322,528990695,1330,-5,-2,-17,125,176,0,10,214,11,0,2020-10-04T11:35:45,1601674491.149241,2020-10-03T00:34:51,56.40943522099892,40.97626693300995,128.5052198120284
1601800550,160000,30969000,25454,2126,3,221,267038951,231939089,528990543,1297,-6,0,-16,142,158,0,11,230,11,0,2020-10-04T11:35:50,1601674496.008149,2020-10-03T00:34:56,56.409441188588175,40.9762423677648,126.23918217507153
1601800554,297000,30973000,39914,2126,3,221,267038879,231938949,528990437,1252,0,0,-7,139,168,0,10,244,11,0,2020-10-04T11:35:54,1601674500.802908,2020-10-03T00:35:00,56.409446856295865,40.97623289406985,124.54753535769903
1601800563,407000,30982000,72539,2126,3,221,267038831,231938831,528990493,1508,-5,-26,-25,126,168,0,10,3,11,0,2020-10-04T11:36:03,1601674508.65146,2020-10-03T00:35:08,56.40945813830048,40.97622356157261,124.38543089796183
1601800568,358000,30987000,90452,2126,3,221,267038893,231938818,528990482,1283,-42,5,20,73,158,0,11,17,11,0,2020-10-04T11:36:08,1601674513.8139849,2020-10-03T00:35:13,56.40945472774717,40.97621538584238,124.50560828966327
1601800572,227000,30991000,104757,2126,3,221,267038855,231938744,528990484,1301,-14,-16,10,123,158,0,11,35,11,0,2020-10-04T11:36:12,1601674519.133152,2020-10-03T00:35:19,56.409460603482685,40.97621037223995,124.09507624785233
1601800577,201000,30996000,122654,2126,3,221,267038824,231938682,528990585,1364,-4,-10,-16,140,158,0,11,49,11,0,2020-10-04T11:36:17,1601674523.406345,2020-10-03T00:35:23,56.409470414044016,40.97620608265446,124.5820008649885
1601800586,284000,31005000,154711,2126,3,221,267038920,231938508,528990658,1348,-58,34,-11,110,181,0,9,67,11,0,2020-10-04T11:36:26,1601674531.4174888,2020-10-03T00:35:31,56.4094771547469,40.97617460525406,124.95982814984805
1601800590,421000,31009000,168881,2126,3,221,267038863,231938614,528990670,1276,-43,9,12,60,158,0,11,80,11,0,2020-10-04T11:36:30,1601674535.8857079,2020-10-03T00:35:35,56.40947577039316,40.976193623638935,125.20626368414275
1601800596,236000,31015000,190056,2126,3,221,267038829,231938476,528990567,1341,2,-111,-27,118,158,0,11,98,11,0,2020-10-04T11:36:36,1601674541.9263089,2020-10-03T00:35:41,56.409479342821406,40.976180358022475,123.7055885327675
1601800600,374000,31019000,204106,2126,3,221,267038862,231938036,528990760,1431,-10,-102,59,143,158,0,11,116,11,0,2020-10-04T11:36:40,1601674546.8033879,2020-10-03T00:35:46,56.40950865284254,40.9761230411965,123.85485358675183
1601800605,324000,31024000,221628,2126,3,221,267038800,231938001,528990746,1389,-2,0,1,67,158,0,11,132,11,0,2020-10-04T11:36:45,1601674551.54734,2020-10-03T00:35:51,56.409513175950565,40.97612534658338,123.35228228540242
1601800610,302000,31029000,239109,2126,3,221,267038700,231937808,528990685,1294,4,-79,-1,78,158,0,11,148,11,0,2020-10-04T11:36:50,1601674556.195253,2020-10-03T00:35:56,56.40952526090723,40.97611236522775,121.72625770223478
1601800618,309000,31037000,266919,2126,3,221,267038314,231937506,528990694,1319,1,-24,-48,140,158,0,11,164,11,0,2020-10-04T11:36:58,1601674563.6856,2020-10-03T00:36:03,56.40956232417937,40.976116433171754,119.09328750684163
1601800623,262000,31042000,284181,2126,3,221,267038274,231937577,528990750,1354,6,10,22,155,175,0,10,178,11,0,2020-10-04T11:37:03,1601674568.415145,2020-10-03T00:36:08,56.40956388278259,40.976129365351674,119.65027915227455
1601800628,239000,31047000,301466,2126,3,221,267038141,231937754,528990757,1401,6,5,-82,146,175,0,10,194,11,0,2020-10-04T11:37:08,1601674574.2617528,2020-10-03T00:36:14,56.409563059502,40.976165140026616,119.79519700277834
1601800632,377000,31051000,315311,2126,3,221,267038141,231937844,528991008,1464,31,14,95,151,157,0,11,210,11,0,2020-10-04T11:37:12,1601674582.66784,2020-10-03T00:36:22,56.40957111547469,40.97617614693792,122.21257454685164
1601800641,196000,31060000,346593,2126,3,221,267038086,231937769,528990860,1333,-19,-8,-45,142,157,0,11,223,11,0,2020-10-04T11:37:21,1601674586.832052,2020-10-03T00:36:26,56.4095705476394,40.97617281681305,120.47788719790897
1601800646,171000,31065000,363952,2126,3,221,267038073,231937803,528990946,1265,0,-5,-9,110,157,0,11,239,11,0,2020-10-04T11:37:26,1601674591.993113,2020-10-03T00:36:31,56.40957388690921,40.97617835588759,121.26332798971937
1601800650,306000,31069000,377864,2126,3,221,267038079,231937799,528991009,1277,4,-75,14,129,157,0,11,255,11,0,2020-10-04T11:37:30,1601674596.518528,2020-10-03T00:36:36,56.409576874426286,40.97617722934949,121.79867666920543
1601800655,256000,31074000,395211,2126,3,221,267038066,231937725,528991003,1313,-21,-26,-18,118,174,0,10,15,11,0,2020-10-04T11:37:35,1601674601.322049,2020-10-03T00:36:41,56.40958094069249,40.97616956012858,121.42592895921982
1601800660,231000,31079000,412602,2126,3,221,267038127,231937812,528991063,1302,24,16,15,105,157,0,11,31,11,0,2020-10-04T11:37:40,1601674606.4150848,2020-10-03T00:36:46,56.409576208672014,40.97617372050094,122.49616105665751
1601800668,237000,31087000,440499,2126,3,221,267038115,231937808,528991056,1277,-23,0,-67,148,157,0,11,51,11,0,2020-10-04T11:37:48,1601674615.101465,2020-10-03T00:36:55,56.40957673485676,40.97617450598873,122.37321490622662
1601800673,186000,31092000,457918,2126,3,221,267038107,231937816,528991128,1255,23,-2,22,103,157,0,11,63,11,0,2020-10-04T11:37:53,1601674619.5246558,2020-10-03T00:36:59,56.40958037158656,40.976176334170084,122.96859254755319
1601800677,323000,31096000,471894,2126,3,221,267038092,231937796,528991148,1266,-2,18,-33,131,165,0,10,77,11,0,2020-10-04T11:37:57,1601674624.054517,2020-10-03T00:37:04,56.40958319360768,40.976175481544736,122.99998245763116
1601800682,300000,31101000,489312,2126,3,221,267038085,231937775,528991102,1292,-12,1,-26,143,157,0,11,93,11,0,2020-10-04T11:38:02,1601674628.772289,2020-10-03T00:37:08,56.4095823336195,40.976173656830895,122.51137100147325
1601800691,413000,31110000,-479415,2126,3,221,267038088,231937801,528991065,1234,-7,8,25,97,157,0,11,111,11,0,2020-10-04T11:38:11,1601674637.403328,2020-10-03T00:37:17,56.4095790503709,40.97617651793449,122.31001282753846
1601800695,256000,31114000,-465453,2126,3,221,267038142,231937847,528991349,1271,20,27,105,142,157,0,11,125,11,0,2020-10-04T11:38:15,1601674641.694416,2020-10-03T00:37:21,56.409587854497936,40.976176407611256,125.0682121763016
1601800700,231000,31119000,-447921,2126,3,221,267038135,231937828,528991368,1249,-11,-13,-52,124,157,0,11,143,11,0,2020-10-04T11:38:20,1601674646.832084,2020-10-03T00:37:26,56.4095901259385,40.97617482749583,125.12831555682708
1601800705,208000,31124000,-430444,2126,3,221,267038125,231937829,528991315,1245,-4,-14,20,106,157,0,11,159,11,0,2020-10-04T11:38:25,1601674651.2388449,2020-10-03T00:37:31,56.40958800836347,40.97617601203134,124.6486765843474
1601800713,187000,31132000,-402522,2126,3,221,267037871,231937863,528991240,1281,-44,-15,17,112,157,0,11,179,11,0,2020-10-04T11:38:33,1601674659.770905,2020-10-03T00:37:39,56.409596959938526,40.97620715102006,123.08631919535786
1601800718,165000,31137000,-385089,2126,3,221,267037642,231937777,528991297,1405,-100,-12,69,113,190,0,10,192,11,0,2020-10-04T11:38:38,1601674663.654445,2020-10-03T00:37:43,56.40961694468672,40.976220958558066,122.2926137383733
1601800723,412000,31142000,-367648,2126,3,221,267037145,231937379,528991861,1458,-98,-80,110,157,190,0,10,208,11,0,2020-10-04T11:38:43,1601674669.108284,2020-10-03T00:37:49,56.40969256188844,40.976225076803495,123.47096074994307
1601800727,282000,31146000,-353656,2126,3,221,267036761,231937040,528992207,1465,-109,-76,82,127,157,0,11,224,11,0,2020-10-04T11:38:47,1601674674.0616648,2020-10-03T00:37:54,56.40974807119325,40.97622440739253,123.51938547939757
1601800732,234000,31151000,-336143,2126,3,221,267036537,231936758,528992313,1419,58,-27,-91,136,157,0,11,240,11,0,2020-10-04T11:38:52,1601674679.140533,2020-10-03T00:37:59,56.40977982311776,40.976213713163105,122.4436779644688
1601800737,212000,31156000,-318644,2126,3,221,267037029,231936607,528992040,1335,27,-95,-88,94,157,0,11,0,11,0,2020-10-04T11:38:57,1601674683.914268,2020-10-03T00:38:03,56.409745878439466,40.97614298362203,121.67678431323917
1601800746,304000,31165000,-287324,2126,3,221,267037073,231936442,528991894,1502,-43,-11,30,141,158,0,10,18,11,0,2020-10-04T11:39:06,1601674692.520344,2020-10-03T00:38:12,56.409744233542646,40.97611813031929,120.04576284658528
1601800751,283000,31170000,-269981,2126,3,221,267037079,231936410,528992255,1666,-10,-18,107,198,157,0,11,32,11,0,2020-10-04T11:39:11,1601674696.69628,2020-10-03T00:38:16,56.40976340075353,40.97611357938449,122.96191728799694
1601800756,263000,31175000,-252593,2126,3,221,267037046,231936369,528992517,1752,22,-3,1,87,158,0,10,48,11,0,2020-10-04T11:39:16,1601674701.9025638,2020-10-03T00:38:21,56.40978029335733,40.976112070489236,124.85783518897519
1601800760,404000,31179000,-238671,2126,3,221,267037089,231936238,528992311,1811,-3,-5,-40,188,183,0,8,66,11,0,2020-10-04T11:39:20,1601674710.663377,2020-10-03T00:38:30,56.40977405594136,40.976091481587005,122.84617633549763
1601800769,229000,31188000,-207485,2126,3,221,267037063,231936268,528992163,2105,30,6,-48,171,179,0,8,81,11,0,2020-10-04T11:39:29,1601674715.455689,2020-10-03T00:38:35,56.40976669936084,40.97609791240523,121.61354981453374
1601800774,209000,31193000,-190179,2126,3,221,267036963,231936343,528992090,2101,21,-2,-66,206,178,0,9,97,11,0,2020-10-04T11:39:34,1601674720.0326278,2020-10-03T00:38:40,56.40976504115577,40.976117707293454,120.85984706296426
1601800778,349000,31197000,-176348,2126,3,221,267037025,231936331,528991861,2126,34,-8,-132,220,166,0,9,113,11,0,2020-10-04T11:39:38,1601674724.6151369,2020-10-03T00:38:44,56.40975075019166,40.97610965380411,119.16767713934144
1601800783,302000,31202000,-159098,2126,3,221,267037115,231936287,528991623,2261,-2,-13,-82,238,208,0,9,129,11,0,2020-10-04T11:39:43,1601674729.247104,2020-10-03T00:38:49,56.40973600040442,40.97609471245171,117.40139778254505
1601800788,280000,31207000,-141849,2126,3,221,267037140,231936301,528991440,2301,54,-2,-43,177,189,0,10,145,11,0,2020-10-04T11:39:48,1601674734.4107208,2020-10-03T00:38:54,56.40972480924493,40.97609376904822,116.03219424814638
1601800797,374000,31216000,-110874,2126,3,221,267036991,231936132,528990780,2716,-31,-24,-5,149,312,0,7,163,11,0,2020-10-04T11:39:57,1601674743.0731559,2020-10-03T00:39:03,56.40970872303749,40.97608892776224,109.29881352949418
1601800801,245000,31220000,-97126,2126,3,221,267037088,231936062,528991217,2343,-52,-43,-6,126,156,0,11,178,11,0,2020-10-04T11:40:01,1601674747.7540479,2020-10-03T00:39:07,56.40972839080688,40.976070063040986,113.09030008931022
1601800806,225000,31225000,-80016,2126,3,221,267036915,231936028,528991662,1750,-44,-59,-23,127,166,0,10,192,11,0,2020-10-04T11:40:06,1601674752.3597488,2020-10-03T00:39:12,56.40976193963687,40.976084281605196,115.95125826539444
1601800811,178000,31230000,-63003,2126,3,221,267036813,231935815,528990942,1632,-1,-70,-107,138,156,0,11,208,11,0,2020-10-04T11:40:11,1601674757.105856,2020-10-03T00:39:17,56.40974237625859,40.97606906657472,108.75475594596965
1601800819,190000,31238000,-35964,2126,3,221,267036639,231935315,528991242,1803,-89,-137,-14,272,185,0,9,226,11,0,2020-10-04T11:40:19,1601674764.698657,2020-10-03T00:39:24,56.409791637358545,40.97602639951624,108.71306539819021
1601800824,202000,31243000,-19155,2126,3,221,267036829,231935326,528991008,1904,-55,-63,-53,173,166,0,10,240,11,0,2020-10-04T11:40:24,1601674769.8203728,2020-10-03T00:39:29,56.40976874018658,40.976007562235495,107.59733505017654
1601800829,155000,31248000,-2413,2126,3,221,267036948,231935253,528991225,1937,-18,-309,42,396,222,0,6,2,11,0,2020-10-04T11:40:29,1601674775.1085598,2020-10-03T00:39:35,56.40977638179684,40.9759859936565,109.63719940200633
1601800833,296000,31252000,10960,2126,3,221,267036772,231934365,528990365,2069,-81,-92,-272,201,178,0,8,16,11,0,2020-10-04T11:40:33,1601674779.295956,2020-10-03T00:39:39,56.40978715481088,40.97589608628437,98.51655609872309
1601800841,308000,31260000,37480,2126,3,221,267036966,231934860,528990396,2027,-11,-18,-23,183,185,0,8,36,11,0,2020-10-04T11:40:41,1601674787.934744,2020-10-03T00:39:47,56.40975345515733,40.97593601759313,101.38092421067275
1601800846,288000,31265000,53882,2126,3,221,267036994,231934806,528990281,1877,-20,-199,-99,123,168,0,9,51,11,0,2020-10-04T11:40:46,1601674792.459728,2020-10-03T00:39:52,56.409748808931646,40.97592643909827,100.34400508209224
1601800851,242000,31270000,70173,2126,3,221,267036948,231934336,528990025,1825,-28,-52,-57,148,185,0,8,65,11,0,2020-10-04T11:40:51,1601674796.904909,2020-10-03T00:39:56,56.40976174391227,40.97587384414067,96.31423815074129
1601800856,223000,31275000,86298,2126,3,221,267036931,231934621,528990309,1771,-34,-64,-78,169,185,0,8,81,11,0,2020-10-04T11:40:56,1601674802.222225,2020-10-03T00:40:02,56.409762833732316,40.97591050561849,99.64294176754358
1601800860,363000,31279000,99079,2126,3,221,267036802,231934724,528990122,2069,-12,39,-143,245,314,0,6,95,11,0,2020-10-04T11:41:00,1601674807.0245879,2020-10-03T00:40:07,56.40975577579933,40.97593680547012,97.92004847389273
1601800865,341000,31284000,114960,2126,3,221,267036353,231934096,528990011,1887,-19,-234,-96,118,168,0,9,109,11,0,2020-10-04T11:41:05,1601674811.8182719,2020-10-03T00:40:11,56.40980642762099,40.97590769529756,92.84163689312541
1601800874,170000,31293000,143091,2126,3,221,267034468,231931873,528989446,2071,-55,-139,-222,200,182,0,9,127,11,0,2020-10-04T11:41:14,1601674820.535913,2020-10-03T00:40:20,56.40999387329627,40.97583605266551,72.19679791719965
1601800879,150000,31298000,158490,2126,3,221,267034844,231929211,528987298,3072,-7,-440,-520,320,200,0,7,143,11,0,2020-10-04T11:41:19,1601674824.89412,2020-10-03T00:40:24,56.409996500041245,40.97547054282446,46.216777793405385
1601800883,291000,31302000,170665,2126,3,221,267035195,231928580,528986403,2649,136,-253,-511,251,243,0,7,159,11,0,2020-10-04T11:41:23,1601674829.7408478,2020-10-03T00:40:29,56.40996316101349,40.975356084677024,37.938221948604
1601800888,246000,31307000,185794,2126,3,221,267034905,231927692,528983160,2430,62,-410,-775,380,388,0,7,177,11,0,2020-10-04T11:41:28,1601674838.111045,2020-10-03T00:40:38,56.409861972055985,40.97527828416829,6.4906453387398155
1601800896,257000,31315000,209552,2126,3,221,267036044,231929524,528985983,2318,10,-299,74,207,238,0,7,191,11,0,2020-10-04T11:41:36,1601674842.2919278,2020-10-03T00:40:42,56.40984803152562,40.97538135447605,41.41047668758466
1601800901,237000,31320000,224239,2126,3,221,267036586,231930794,528987468,2310,6,-1,-37,196,250,0,6,205,11,0,2020-10-04T11:41:41,1601674847.365721,2020-10-03T00:40:47,56.40982890062144,40.97547910537524,60.6520532703338
1601800906,191000,31325000,238795,2126,3,221,267036838,231932225,528989033,2046,-4,-34,-12,138,238,0,7,223,11,0,2020-10-04T11:41:46,1601674852.837733,2020-10-03T00:40:52,56.40982222603237,40.97562735105776,79.93281415814012
1601800915,313000,31334000,264846,2126,3,221,267037152,231932541,528989760,2373,10,-114,-53,228,238,0,7,239,11,0,2020-10-04T11:41:55,1601674860.2712998,2020-10-03T00:41:00,56.409825110590205,40.97563264406754,88.44681255635588
1601800920,266000,31339000,279289,2126,3,221,267035692,231928618,528990976,2164,-163,-393,-40,220,191,0,9,1,11,0,2020-10-04T11:42:00,1601674866.633868,2020-10-03T00:41:06,56.41016043571541,40.97530793873919,78.24595870015446
1601800925,245000,31344000,293552,2126,3,221,267035638,231929048,528991341,1944,-19,-283,-26,151,165,0,10,17,11,0,2020-10-04T11:42:05,1601674871.652808,2020-10-03T00:41:11,56.4101605266872,40.97536626523837,82.62088193939101
1601800930,223000,31349000,307715,2126,3,221,267035697,231929397,528991635,1938,-36,-115,-18,254,230,0,8,30,11,0,2020-10-04T11:42:10,1601674875.408272,2020-10-03T00:41:15,56.41015468115973,40.97540268177846,86.58250492191569
1601800934,362000,31353000,319013,2126,3,221,267035809,231930225,528991290,2180,-45,-42,-100,215,419,0,6,44,11,0,2020-10-04T11:42:14,1601674880.319257,2020-10-03T00:41:20,56.41009059580658,40.97549205137665,87.1802421276073
1601800939,314000,31358000,333061,2126,3,221,267036004,231931149,528990367,2316,72,-19,-117,251,243,0,8,60,11,0,2020-10-04T11:42:19,1601674885.5575519,2020-10-03T00:41:25,56.40998839519745,40.97558434505937,83.65810807590532
1601800943,184000,31362000,344245,2126,3,221,267036200,231931829,528990555,2578,58,-29,11,155,297,0,6,76,11,0,2020-10-04T11:42:23,1601674890.298337,2020-10-03T00:41:30,56.40995330772691,40.9756466904879,88.50979899603152
1601800952,306000,31371000,369315,2126,3,221,267036685,231932338,528990624,2726,1,-107,-114,208,230,0,8,92,11,0,2020-10-04T11:42:32,1601674898.201397,2020-10-03T00:41:38,56.409904373383455,40.97565742339814,92.95697983815909
1601800957,262000,31376000,383140,2126,3,221,267036817,231931877,528989719,2943,-50,-50,-101,242,309,0,6,106,11,0,2020-10-04T11:42:37,1601674902.975224,2020-10-03T00:41:42,56.409874567625494,40.975587020765595,84.29709551515049
1601800962,244000,31381000,396782,2126,3,221,267036845,231932891,528990141,2929,-26,-26,9,222,287,0,7,122,11,0,2020-10-04T11:42:42,1601674908.086725,2020-10-03T00:41:48,56.40984421067684,40.97570806027251,91.60802971056762
1601800967,200000,31386000,410300,2126,3,221,267037130,231933753,528990231,2819,11,2,-40,228,421,0,6,138,11,0,2020-10-04T11:42:47,1601674913.0871089,2020-10-03T00:41:53,56.40979029921357,40.975783210031196,96.67540199982972
1601800972,183000,31391000,423750,2126,3,221,267037115,231933525,528990274,2689,5,-7,-76,200,287,0,7,154,11,0,2020-10-04T11:42:52,1601674917.677721,2020-10-03T00:41:57,56.409804467621505,40.97575691876847,96.14378900977762
1601800980,197000,31399000,444988,2126,3,221,267037370,231933398,528989448,2636,2,-117,-148,227,287,0,7,174,11,0,2020-10-04T11:43:00,1601674926.2813408,2020-10-03T00:42:06,56.40975525516668,40.975714299474475,89.8674649527301
1601800985,153000,31404000,458168,2126,3,221,267037725,231933827,528986153,2583,25,-38,-664,218,230,0,8,190,11,0,2020-10-04T11:43:05,1601674930.910104,2020-10-03T00:42:10,56.40955044579531,40.97572905718884,65.45882814126112
1601800989,293000,31408000,468630,2126,3,221,267037609,231934316,528985913,2542,-71,-84,-228,194,287,0,7,208,11,0,2020-10-04T11:43:09,1601674936.104128,2020-10-03T00:42:16,56.409521084605764,40.975801184188214,64.7491083214403
1601800999,259000,31418000,494634,2126,3,221,267037926,231936135,528981779,2696,-90,38,-251,200,241,0,8,239,11,0,2020-10-04T11:43:19,1601674948.6595728,2020-10-03T00:42:28,56.40920854492148,40.97598997536564,38.23570962412011
1601801007,249000,31426000,-484955,2126,3,221,267036857,231935907,528987891,1637,14,8,8,109,154,0,11,255,11,0,2020-10-04T11:43:27,1601674953.703516,2020-10-03T00:42:33,56.409583787952386,40.97607564431172,83.85703539022215
1601801012,236000,31431000,-472429,2126,3,221,267036705,231935578,528990017,1499,13,-3,-14,88,164,0,10,15,11,0,2020-10-04T11:43:32,1601674958.550648,2020-10-03T00:42:38,56.409714143585234,40.97605155366793,99.7384422004306
1601801017,221000,31436000,-460017,2126,3,221,267036812,231935785,528989654,1479,96,-155,-244,166,188,0,10,33,11,0,2020-10-04T11:43:37,1601674966.735545,2020-10-03T00:42:46,56.409679909835276,40.97606550379866,97.91250835180801
1601801021,365000,31440000,-450111,2126,3,221,267036839,231936123,528989760,1533,17,28,-5,132,154,0,11,46,11,0,2020-10-04T11:43:41,1601674970.390353,2020-10-03T00:42:50,56.40966707055778,40.97610397312558,100.13451499609641
1601801030,200000,31449000,-427929,2126,3,221,267036739,231936790,528990799,1749,11,-19,111,191,205,0,9,59,11,0,2020-10-04T11:43:50,1601674975.473409,2020-10-03T00:42:55,56.409691621129696,40.97619616944917,110.7916615524992
1601801034,344000,31453000,-418046,2126,3,221,267036592,231936836,528991606,1847,-29,-51,182,183,156,0,10,75,11,0,2020-10-04T11:43:54,1601674980.4434118,2020-10-03T00:43:00,56.409737763017965,40.97621741019339,117.06696694445671
1601801039,330000,31458000,-405664,2126,3,221,267036552,231936962,528991800,1748,40,-15,-34,136,171,0,9,93,11,0,2020-10-04T11:43:59,1601674985.5650918,2020-10-03T00:43:05,56.409743480050196,40.976237068905206,118.97305629958046
1601801048,169000,31467000,-383472,2126,3,221,267036402,231937264,528991855,1602,35,6,-65,156,154,0,11,111,11,0,2020-10-04T11:44:08,1601674993.547044,2020-10-03T00:43:13,56.40973986975548,40.97628993698684,119.90030531892396
1601801052,314000,31471000,-373630,2126,3,221,267036438,231937306,528991201,1704,-62,-24,-156,194,162,0,10,127,11,0,2020-10-04T11:44:12,1601674998.795872,2020-10-03T00:43:18,56.409703282056476,40.976291249481804,114.75512866346105
1601801057,300000,31476000,-361386,2126,3,221,267036521,231937311,528990946,1698,49,24,-165,171,167,0,10,143,11,0,2020-10-04T11:44:17,1601675003.403144,2020-10-03T00:43:23,56.409685679225824,40.9762830443562,112.99576616182507
1601801062,259000,31481000,-349100,2126,3,221,267036465,231937215,528990937,1697,1,2,9,160,188,0,10,159,11,0,2020-10-04T11:44:22,1601675008.1758919,2020-10-03T00:43:28,56.40969310432637,40.97627725218128,112.33860576106223
1601801066,405000,31485000,-339237,2126,3,221,267036418,231937321,528991277,1672,-12,-5,-10,117,205,0,9,173,11,0,2020-10-04T11:44:26,1601675012.666373,2020-10-03T00:43:32,56.409707451882674,40.97629520845975,115.35910015075417
1601801075,269000,31494000,-317188,2126,3,221,267036442,231937339,528991451,1465,1,2,25,129,154,0,11,193,11,0,2020-10-04T11:44:35,1601675021.293665,2020-10-03T00:43:41,56.409713858568736,40.97629486046248,116.97409530468857
1601801080,231000,31499000,-304882,2126,3,221,267036450,231937374,528991743,1385,-7,11,-5,70,154,0,11,211,11,0,2020-10-04T11:44:40,1601675026.288941,2020-10-03T00:43:46,56.40972619781575,40.97629829114375,119.56689211129017
1601801084,374000,31503000,-294968,2126,3,221,267036469,231937442,528991938,1358,13,4,28,121,188,0,10,224,11,0,2020-10-04T11:44:44,1601675030.524488,2020-10-03T00:43:50,56.409731477470395,40.97630458923288,121.51733201529598
1601801088,250000,31507000,-284975,2126,3,221,267036499,231937482,528992090,1357,-6,5,20,139,188,0,10,240,11,0,2020-10-04T11:44:48,1601675035.196349,2020-10-03T00:43:55,56.409735372958885,40.97630629447262,123.05393992574604
1601801097,377000,31516000,-262268,2126,3,221,267036545,231937569,528992134,1367,24,23,9,113,188,0,10,2,11,0,2020-10-04T11:44:57,1601675043.886232,2020-10-03T00:44:03,56.40973069314527,40.97631204818615,123.92823453191933
1601801102,334000,31521000,-249503,2126,3,221,267036599,231937580,528992207,1366,10,8,31,129,188,0,10,18,11,0,2020-10-04T11:45:02,1601675048.3545408,2020-10-03T00:44:08,56.409730730627665,40.97630765736315,124.80179707703893
1601801111,190000,31530000,-226242,2126,3,221,267036595,231937572,528992424,1322,12,1,28,115,187,0,10,36,11,0,2020-10-04T11:45:11,1601675056.51808,2020-10-03T00:44:16,56.409742130647324,40.97630710386676,126.5637091271008
1601801115,332000,31534000,-215811,2126,3,221,267036608,231937546,528992503,1295,-4,-1,11,120,187,0,10,52,11,0,2020-10-04T11:45:15,1601675061.5542839,2020-10-03T00:44:21,56.40974659698532,40.976302543170746,127.18176546018618
1601801120,289000,31539000,-202680,2126,3,221,267036593,231937517,528992571,1285,-4,-20,31,128,187,0,10,67,11,0,2020-10-04T11:45:20,1601675065.895933,2020-10-03T00:44:25,56.40975224538956,40.976300589857814,127.58035235277967
1601801124,162000,31543000,-192131,2126,3,221,267036613,231937530,528992688,1297,0,2,13,136,187,0,10,83,11,0,2020-10-04T11:45:24,1601675070.4292638,2020-10-03T00:44:30,56.40975629120796,40.97630005526145,128.6856819392403
1601801128,304000,31547000,-181526,2126,3,221,267036606,231937543,528992655,1287,2,-2,6,89,153,0,11,101,11,0,2020-10-04T11:45:28,1601675075.521133,2020-10-03T00:44:35,56.40975440923243,40.976302388721706,128.42871125782344
1601801138,242000,31557000,-154740,2126,3,221,267036549,231937542,528992622,1305,-1,-2,-8,152,187,0,10,118,11,0,2020-10-04T11:45:38,1601675084.0974479,2020-10-03T00:44:44,56.40975603803106,40.976308321209615,127.91210326856601
1601801143,227000,31562000,-141235,2126,3,221,267036547,231937495,528992546,1304,15,-3,-1,48,187,0,10,134,11,0,2020-10-04T11:45:43,1601675088.9324489,2020-10-03T00:44:48,56.40975468056944,40.97630278559385,127.10014553521411
1601801147,370000,31566000,-130387,2126,3,221,267036538,231937498,528992514,1338,6,7,10,119,187,0,10,150,11,0,2020-10-04T11:45:47,1601675093.7385728,2020-10-03T00:44:53,56.409753451799226,40.97630410851075,126.80687198091628
1601801152,327000,31571000,-116773,2126,3,221,267036520,231937525,528992386,1363,2,-1,0,49,187,0,10,163,11,0,2020-10-04T11:45:52,1601675097.985288,2020-10-03T00:44:57,56.409746784238735,40.976309322628865,125.76338132635928
1601801156,201000,31575000,-105855,2126,3,221,267036389,231937419,528992258,1380,-11,-9,-24,131,207,0,9,181,11,0,2020-10-04T11:45:56,1601675103.055776,2020-10-03T00:45:03,56.409753023361645,40.976310274300864,123.76538446072499
1601801161,183000,31580000,-92185,2126,3,221,267036389,231937369,528992208,1539,4,-2,23,166,187,0,10,197,11,0,2020-10-04T11:46:01,1601675110.689393,2020-10-03T00:45:10,56.409752991918474,40.976304159335335,123.16748084159256
1601801170,279000,31589000,-67514,2126,3,221,267036386,231937371,528992345,1633,-4,12,-2,104,187,0,10,212,11,0,2020-10-04T11:46:10,1601675116.62124,2020-10-03T00:45:16,56.40975987009314,40.97630472260722,124.30343707206822
1601801175,262000,31594000,-53783,2126,3,221,267036284,231937346,528992230,1659,-44,-10,-26,137,153,0,11,228,11,0,2020-10-04T11:46:15,1601675121.6583369,2020-10-03T00:45:21,56.409761143661655,40.97631250001624,122.82872459218922
1601801180,243000,31599000,-39997,2126,3,221,267036334,231937389,528992224,1644,16,16,4,98,207,0,9,244,11,0,2020-10-04T11:46:20,1601675126.33348,2020-10-03T00:45:26,56.40975591214533,40.976312447665,123.14359056269453
1601801185,201000,31604000,-26139,2126,3,221,267036331,231937369,528992090,1640,-19,-9,-16,127,187,0,10,4,11,0,2020-10-04T11:46:25,1601675131.141664,2020-10-03T00:45:31,56.40975040491393,40.9763103203519,121.94226073269586
1601801193,221000,31612000,-3850,2126,3,221,267036536,231937449,528992014,1743,-43,4,14,121,187,0,10,22,11,0,2020-10-04T11:46:33,1601675139.715525,2020-10-03T00:45:39,56.409731125994625,40.97629832829548,122.45567348083364
1601801198,207000,31617000,10136,2126,3,221,267036503,231937430,528992110,1730,13,2,-16,171,153,0,11,36,11,0,2020-10-04T11:46:38,1601675143.753829,2020-10-03T00:45:43,56.409738691660515,40.97629951001286,123.04859890360613
1601801203,165000,31622000,24165,2126,3,221,267036603,231937475,528992181,1738,41,37,17,165,187,0,10,52,11,0,2020-10-04T11:46:43,1601675149.386021,2020-10-03T00:45:49,56.409734363791614,40.97629439104604,124.22098929034742
1601801207,520000,31626000,35428,2126,3,221,267036708,231937514,528991984,1704,-6,-2,-89,174,153,0,11,68,11,0,2020-10-04T11:46:47,1601675154.2967758,2020-10-03T00:45:54,56.40971673226634,40.97628800716548,123.16001630236951
1601801212,223000,31631000,49483,2126,3,221,267036526,231937330,528991961,1653,8,13,-52,147,153,0,11,83,11,0,2020-10-04T11:46:52,1601675159.043144,2020-10-03T00:45:59,56.40973489516595,40.976284836921835,121.54068373726629
1601801217,386000,31636000,63558,2126,3,221,267036446,231937334,528992056,1397,-4,16,33,99,152,0,11,99,11,0,2020-10-04T11:46:57,1601675166.2812848,2020-10-03T00:46:06,56.4097439374083,40.97629382406828,122.0124053715095
1601801225,393000,31644000,86226,2126,3,221,267036452,231937427,528992107,1343,8,37,-11,125,152,0,11,114,11,0,2020-10-04T11:47:05,1601675171.9481359,2020-10-03T00:46:11,56.40974157024426,40.97630456055806,122.79970119367576
1601801230,557000,31649000,100420,2126,3,221,267036441,231937453,528992149,1392,-15,-39,24,119,152,0,11,130,11,0,2020-10-04T11:47:10,1601675176.4836888,2020-10-03T00:46:16,56.409743002833835,40.976308908807766,123.19794728802842
1601801239,497000,31658000,126076,2126,3,221,267036386,231937433,528992092,1546,10,8,-18,211,186,0,10,152,11,0,2020-10-04T11:47:19,1601675185.2228808,2020-10-03T00:46:25,56.40974425829914,40.97631230516425,122.42083899266598
1601801243,244000,31662000,137538,2126,3,221,267036403,231937410,528992101,1646,14,0,50,183,186,0,10,166,11,0,2020-10-04T11:47:23,1601675189.502977,2020-10-03T00:46:29,56.40974487359958,40.97630768646542,122.48337604937953
1601801248,434000,31667000,151918,2126,3,221,267036407,231937419,528992187,1600,1,7,-40,159,152,0,11,179,11,0,2020-10-04T11:47:28,1601675193.862108,2020-10-03T00:46:33,56.40974847908814,40.9763083622615,123.24912825546268
1601801252,180000,31671000,163404,2126,3,221,267036369,231937383,528992059,1566,-2,11,-85,168,152,0,11,195,11,0,2020-10-04T11:47:32,1601675198.713408,2020-10-03T00:46:38,56.40974603165799,40.976307996014114,121.89354016160021
1601801257,344000,31676000,177793,2126,3,221,267036421,231937433,528992083,1571,18,14,-20,160,152,0,11,211,11,0,2020-10-04T11:47:37,1601675203.559336,2020-10-03T00:46:43,56.40974183434034,40.97630858730999,122.49206017803586
1601801266,278000,31685000,203862,2126,3,221,267036327,231937358,528992019,1702,14,-59,-13,139,186,0,10,230,11,0,2020-10-04T11:47:46,1601675212.419185,2020-10-03T00:46:52,56.409747642812974,40.97630939995703,121.29420498139608
1601801270,513000,31689000,215477,2126,3,221,267036318,231937364,528992185,1680,-34,-9,31,123,152,0,11,246,11,0,2020-10-04T11:47:50,1601675217.110669,2020-10-03T00:46:57,56.409756104510656,40.97631108977297,122.66118572049112
1601801275,216000,31694000,230017,2126,3,221,267036370,231937421,528992528,1601,-2,14,46,153,152,0,11,8,11,0,2020-10-04T11:47:55,1601675222.071368,2020-10-03T00:47:02,56.40976741331685,40.976312537163395,125.94242050052883
1601801280,381000,31699000,244614,2126,3,221,267036376,231937460,528992580,1569,7,9,38,150,160,0,10,21,11,0,2020-10-04T11:48:00,1601675226.224716,2020-10-03T00:47:06,56.40976774486724,40.9763166694892,126.5421389320154
1601801284,614000,31703000,256340,2126,3,221,267036474,231937491,528992603,1558,8,3,29,153,160,0,10,37,11,0,2020-10-04T11:48:04,1601675231.0857959,2020-10-03T00:47:11,56.409761831862504,40.976310050775325,127.25553687285053
1601801289,317000,31708000,271015,2126,3,221,267036551,231937467,528992497,1579,7,-8,-51,146,152,0,11,53,11,0,2020-10-04T11:48:09,1601675238.7913558,2020-10-03T00:47:18,56.40975339365706,40.97629893631718,126.60709399847943
1601801298,400000,31717000,297292,2126,3,221,267036538,231937422,528992275,1452,28,6,-9,112,152,0,11,68,11,0,2020-10-04T11:48:18,1601675244.625885,2020-10-03T00:47:24,56.409745305347435,40.97629481376617,124.54024343480663
1601801303,362000,31722000,311981,2126,3,221,267036515,231937414,528992238,1428,-13,-11,20,132,152,0,11,86,11,0,2020-10-04T11:48:23,1601675249.720296,2020-10-03T00:47:29,56.409745158486075,40.97629627853191,124.10693499485997
1601801307,240000,31726000,323745,2126,3,221,267036469,231937366,528992148,1399,-55,-27,-33,117,152,0,11,102,11,0,2020-10-04T11:48:27,1601675254.4186049,2020-10-03T00:47:34,56.40974563959945,40.97629529448602,122.99094228534427
1601801312,226000,31731000,338393,2126,3,221,267036491,231937395,528992173,1400,-17,-3,14,131,152,0,11,118,11,0,2020-10-04T11:48:32,1601675258.976788,2020-10-03T00:47:38,56.409744216541114,40.9762965042299,123.3962982293712
1601801321,334000,31740000,364843,2126,3,221,267036372,231937331,528992354,1470,67,11,-37,152,152,0,11,134,11,0,2020-10-04T11:48:41,1601675266.804184,2020-10-03T00:47:46,56.409763070221835,40.97630131777578,124.17481478557572
1601801325,211000,31744000,376567,2126,3,221,267036425,231937377,528992095,1479,-15,-9,-70,140,151,0,11,148,11,0,2020-10-04T11:48:45,1601675271.6685479,2020-10-03T00:47:51,56.409744951786685,40.976301313651405,122.40556628689666
1601801331,284000,31750000,394045,2126,3,221,267036501,231937514,528992188,1382,-3,-7,-26,139,151,0,11,164,11,0,2020-10-04T11:48:51,1601675277.257601,2020-10-03T00:47:57,56.40973855933687,40.9763099956001,123.99474218403606
1601801335,162000,31754000,405680,2126,3,221,267036445,231937474,528992142,1340,-11,-22,-40,122,151,0,11,180,11,0,2020-10-04T11:48:55,1601675282.2079449,2020-10-03T00:48:02,56.40974139893996,40.97631105219499,123.2325302433836
1601801340,420000,31759000,420123,2126,3,221,267036374,231937369,528991942,1330,-45,8,-84,137,151,0,11,195,11,0,2020-10-04T11:49:00,1601675287.028612,2020-10-03T00:48:07,56.409740622893956,40.976305752701535,120.88900600923567
1601801345,410000,31764000,434436,2126,3,221,267036410,231937404,528991943,1367,-6,2,-14,139,151,0,11,211,11,0,2020-10-04T11:49:05,1601675294.36816,2020-10-03T00:48:14,56.40973692233934,40.97630620909876,121.17468285946126
1601801354,246000,31773000,460195,2126,3,221,267036253,231937345,528991913,1420,-106,-55,-45,131,151,0,11,224,11,0,2020-10-04T11:49:14,1601675299.264164,2020-10-03T00:48:19,56.40974719343489,40.97631567067527,120.05495293458151
1601801358,390000,31777000,471585,2126,3,221,267036190,231937352,528991931,1467,-13,7,-14,136,151,0,11,240,11,0,2020-10-04T11:49:18,1601675304.560732,2020-10-03T00:48:24,56.40975130260174,40.97632321891321,119.96714460316927
1601801367,229000,31786000,497113,2126,3,221,267036154,231937385,528991822,1447,-33,-22,-14,130,151,0,11,4,11,0,2020-10-04T11:49:27,1601675313.472765,2020-10-03T00:48:33,56.40974630134889,40.9763310788736,119.02850975651808
1601801372,218000,31791000,-488850,2126,3,221,267036157,231937324,528991793,1368,-6,-16,-23,141,151,0,11,18,11,0,2020-10-04T11:49:32,1601675317.626292,2020-10-03T00:48:37,56.409747683471416,40.97632329994011,118.57816295907969
1601801376,363000,31795000,-477598,2126,3,221,267036313,231937367,528992032,1416,36,-15,80,151,151,0,11,33,11,0,2020-10-04T11:49:36,1601675322.465692,2020-10-03T00:48:42,56.40974863793053,40.97631198779317,121.3766712321293
1601801380,240000,31799000,-466313,2126,3,221,267036378,231937414,528992055,1453,10,16,-47,147,151,0,11,49,11,0,2020-10-04T11:49:40,1601675326.963497,2020-10-03T00:48:46,56.40974380385815,40.97631083127294,122.0102774098481
1601801385,202000,31804000,-452221,2126,3,221,267036458,231937454,528992349,1541,-18,-43,93,184,151,0,11,63,11,0,2020-10-04T11:49:45,1601675331.5554678,2020-10-03T00:48:51,56.4097519306266,40.97630722529245,124.93861376729978
1601801394,340000,31813000,-426674,2126,3,221,267036537,231937554,528992488,1588,-3,13,8,123,151,0,11,81,11,0,2020-10-04T11:49:54,1601675340.0394728,2020-10-03T00:49:00,56.409749469325384,40.976311063492616,126.78927446533645
1601801398,219000,31817000,-415284,2126,3,221,267036497,231937547,528992429,1576,5,-14,3,105,151,0,11,97,11,0,2020-10-04T11:49:58,1601675344.947824,2020-10-03T00:49:04,56.40974914049409,40.97631445637254,126.10532277012435
1601801403,180000,31822000,-401064,2126,3,221,267036597,231937518,528992479,1507,29,13,2,115,151,0,11,113,11,0,2020-10-04T11:50:03,1601675349.59006,2020-10-03T00:49:09,56.409747399394284,40.97630028725975,126.83431382521565
1601801408,169000,31827000,-386848,2126,3,221,267036604,231937547,528992654,1461,1,-5,-2,94,151,0,11,126,11,0,2020-10-04T11:50:08,1601675353.8736799,2020-10-03T00:49:13,56.40975427628251,40.97630309036727,128.42653891561443
1601801412,313000,31831000,-375521,2126,3,221,267036568,231937555,528992673,1430,1,-12,-20,136,151,0,11,142,11,0,2020-10-04T11:50:12,1601675358.61986,2020-10-03T00:49:18,56.40975686111993,40.97630789283705,128.46346573845994
1601801417,298000,31836000,-361340,2126,3,221,267036504,231937514,528992721,1443,11,-8,38,144,151,0,11,160,11,0,2020-10-04T11:50:17,1601675366.329208,2020-10-03T00:49:26,56.409764872005404,40.97630967692699,128.4472451375708
1601801426,400000,31845000,-335958,2126,3,221,267036424,231937446,528992082,1463,-27,3,-103,146,151,0,11,178,11,0,2020-10-04T11:50:26,1601675372.33376,2020-10-03T00:49:32,56.409740977485725,40.97630985852752,122.54342376744103
1601801430,277000,31849000,-324927,2126,3,221,267036231,231937320,528991756,1517,17,-44,-112,170,151,0,11,196,11,0,2020-10-04T11:50:30,1601675377.1523318,2020-10-03T00:49:37,56.409741861840416,40.97631495013001,118.56452839459779
1601801435,263000,31854000,-311231,2126,3,221,267036306,231937363,528991764,1617,-21,99,-91,217,158,0,10,210,11,0,2020-10-04T11:50:35,1601675381.6004438,2020-10-03T00:49:41,56.409735913916826,40.976312242166976,119.10043997185299
1601801440,224000,31859000,-297556,2126,3,221,267036249,231937334,528991696,1668,-18,19,-135,168,150,0,11,226,11,0,2020-10-04T11:50:40,1601675389.5299928,2020-10-03T00:49:49,56.409737177311506,40.97631475028036,118.19069484479353
1601801448,247000,31867000,-275594,2126,3,221,267036384,231937449,528992000,1611,38,17,-32,190,175,0,9,242,11,0,2020-10-04T11:50:48,1601675394.958101,2020-10-03T00:49:54,56.40973901533531,40.97631447440172,121.70415775407767
1601801453,233000,31872000,-261715,2126,3,221,267036359,231937426,528992179,1628,-7,5,15,172,175,0,9,2,11,0,2020-10-04T11:50:53,1601675399.5689368,2020-10-03T00:49:59,56.40975044924552,40.97631431712857,123.0073898322385
1601801458,194000,31877000,-247776,2126,3,221,267036363,231937426,528992275,1705,8,12,53,162,150,0,11,20,11,0,2020-10-04T11:50:58,1601675405.276412,2020-10-03T00:50:05,56.40975499308878,40.97631389223086,123.82379235704246
1601801463,180000,31882000,-233743,2126,3,221,267036538,231937550,528992499,1721,183,63,4,173,150,0,11,36,11,0,2020-10-04T11:51:03,1601675410.072084,2020-10-03T00:50:10,56.409750155605195,40.97631046807134,126.87057141441096
1601801468,435000,31887000,-219688,2126,3,221,267037665,231937903,528992962,1942,357,54,44,258,177,0,8,51,11,0,2020-10-04T11:51:08,1601675414.775405,2020-10-03T00:50:14,56.409692190302465,40.97623392508655,136.7154926628265
1601801472,283000,31891000,-208370,2126,3,221,267037700,231937831,528993149,2184,50,28,98,227,248,0,8,67,11,0,2020-10-04T11:51:12,1601675422.217088,2020-10-03T00:50:22,56.409703036633246,40.97622140172266,138.15821336917136
1601801481,411000,31900000,-182793,2126,3,221,267037189,231937390,528992961,2177,150,81,13,275,233,0,8,82,11,0,2020-10-04T11:51:21,1601675427.741345,2020-10-03T00:50:27,56.409744190697616,40.97622174823683,132.85781914774608
1601801486,394000,31905000,-168479,2126,3,221,267036410,231937420,528992526,2059,-73,185,-81,202,158,0,10,98,11,0,2020-10-04T11:51:26,1601675432.394477,2020-10-03T00:50:32,56.409765103811246,40.97630816588758,126.08920938457956
1601801495,227000,31914000,-142867,2126,3,221,267036121,231938149,528991730,2083,-44,39,-50,189,203,0,9,116,11,0,2020-10-04T11:51:35,1601675440.258025,2020-10-03T00:50:40,56.409706115182026,40.976428020840046,120.89603257421857
1601801499,370000,31918000,-131525,2126,3,221,267036218,231938281,528991958,1912,-35,26,17,134,150,0,11,132,11,0,2020-10-04T11:51:39,1601675445.597488,2020-10-03T00:50:45,56.4097054894274,40.97643386051904,123.67935558767745
1601801503,247000,31922000,-120168,2126,3,221,267036199,231938286,528991884,1742,48,-47,14,145,157,0,10,145,11,0,2020-10-04T11:51:43,1601675449.398957,2020-10-03T00:50:49,56.40970264056316,40.976436490280086,123.00170257214268
1601801508,206000,31927000,-105942,2126,3,221,267036168,231938381,528992326,1744,-60,-48,210,214,150,0,11,161,11,0,2020-10-04T11:51:48,1601675454.9689288,2020-10-03T00:50:54,56.40972169188729,40.97645140163689,126.89879786940266
