time_s,time_us,iTOW,fTOW,week,gpsFix,flags,ecefX,ecefY,ecefZ,pAcc,ecefVX,ecefVY,ecefVZ,sAcc,pDOP,reserved1,numSV,seq,srcSystem,srcComponent,time_gregorian,lat,lon,h
315964809,658000,30330000,-487285,2126,0,92,267039416,231938716,528990252,2625874,0,0,0,2000,9999,0,0,42,11,0,1980-01-06T03:00:09,56.409418764908274,40.97614735663675,124.40418649668209
315964810,552000,30331000,-483677,2126,0,92,267039416,231938716,528990252,2625918,0,0,0,2000,9999,0,0,49,11,0,1980-01-06T03:00:10,56.409418764908274,40.97614735663675,124.40418649668209
315964811,421000,30332000,-480069,2126,0,92,267039416,231938716,528990252,2625968,0,0,0,2000,9999,0,0,53,11,0,1980-01-06T03:00:11,56.409418764908274,40.97614735663675,124.40418649668209
315964812,583000,30333000,-476461,2126,0,92,267039416,231938716,528990252,2626021,0,0,0,2000,9999,0,0,61,11,0,1980-01-06T03:00:12,56.409418764908274,40.97614735663675,124.40418649668209
315964813,478000,30334000,-472853,2126,0,92,267039416,231938716,528990252,2626080,0,0,0,2000,9999,0,0,68,11,0,1980-01-06T03:00:13,56.409418764908274,40.97614735663675,124.40418649668209
315964814,631000,30335000,-469245,2126,0,92,267039416,231938716,528990252,2626143,0,0,0,2000,9999,0,0,73,11,0,1980-01-06T03:00:14,56.409418764908274,40.97614735663675,124.40418649668209
315964815,794000,30336000,-465637,2126,0,92,267039416,231938716,528990252,2626210,0,0,0,2000,9999,0,0,81,11,0,1980-01-06T03:00:15,56.409418764908274,40.97614735663675,124.40418649668209
315964816,403000,30337000,-462030,2126,0,92,267039416,231938716,528990252,2626282,0,0,0,2000,9999,0,0,87,11,0,1980-01-06T03:00:16,56.409418764908274,40.97614735663675,124.40418649668209
315964817,586000,30338000,-458422,2126,0,92,267039416,231938716,528990252,2626359,0,0,0,2000,9999,0,0,92,11,0,1980-01-06T03:00:17,56.409418764908274,40.97614735663675,124.40418649668209
315964818,498000,30339000,-454814,2126,0,92,267039416,231938716,528990252,2626440,0,0,0,2031,9999,0,0,99,11,0,1980-01-06T03:00:18,56.409418764908274,40.97614735663675,124.40418649668209
315964819,650000,30340000,-451206,2126,0,92,267039416,231938716,528990252,2626525,0,0,0,2062,9999,0,0,107,11,0,1980-01-06T03:00:19,56.409418764908274,40.97614735663675,124.40418649668209
315964820,468000,30341000,-447598,2126,0,92,267039416,231938716,528990252,2626616,0,0,0,2092,9999,0,0,111,11,0,1980-01-06T03:00:20,56.409418764908274,40.97614735663675,124.40418649668209
315964821,580000,30342000,-443990,2126,0,92,267039416,231938716,528990252,2626711,0,0,0,2121,9999,0,0,119,11,0,1980-01-06T03:00:21,56.409418764908274,40.97614735663675,124.40418649668209
315964822,424000,30343000,-440382,2126,0,92,267039416,231938716,528990252,2626811,0,0,0,2151,9999,0,0,126,11,0,1980-01-06T03:00:22,56.409418764908274,40.97614735663675,124.40418649668209
315964823,537000,30344000,-436774,2126,0,92,267039416,231938716,528990252,2626917,0,0,0,2179,9999,0,0,134,11,0,1980-01-06T03:00:23,56.409418764908274,40.97614735663675,124.40418649668209
315964824,623000,30345000,-433166,2126,0,92,267039416,231938716,528990252,2627028,0,0,0,2208,9999,0,0,139,11,0,1980-01-06T03:00:24,56.409418764908274,40.97614735663675,124.40418649668209
315964825,467000,30346000,-429559,2126,0,92,267039416,231938716,528990252,2627144,0,0,0,2236,9999,0,0,146,11,0,1980-01-06T03:00:25,56.409418764908274,40.97614735663675,124.40418649668209
315964826,580000,30347000,-425951,2126,0,92,267039416,231938716,528990252,2627265,0,0,0,2264,9999,0,0,154,11,0,1980-01-06T03:00:26,56.409418764908274,40.97614735663675,124.40418649668209
315964827,692000,30348000,-426504,2126,0,92,267039416,231938716,528990252,2627391,0,0,0,2291,9999,0,0,162,11,0,1980-01-06T03:00:27,56.409418764908274,40.97614735663675,124.40418649668209
315964828,510000,30349000,-250342,2126,0,92,267039416,231938716,528990252,2627524,0,0,0,2318,9999,0,0,166,11,0,1980-01-06T03:00:28,56.409418764908274,40.97614735663675,124.40418649668209
315964829,622000,30350000,-246772,2126,0,92,267039416,231938716,528990252,2627661,0,0,0,2345,9999,0,0,174,11,0,1980-01-06T03:00:29,56.409418764908274,40.97614735663675,124.40418649668209
315964830,466000,30351000,-243189,2126,0,92,267039416,231938716,528990252,2627805,0,0,0,2372,9999,0,0,181,11,0,1980-01-06T03:00:30,56.409418764908274,40.97614735663675,124.40418649668209
315964831,552000,30352000,-422778,2126,0,92,267039416,231938716,528990252,2627954,0,0,0,2398,9999,0,0,186,11,0,1980-01-06T03:00:31,56.409418764908274,40.97614735663675,124.40418649668209
315964832,396000,30353000,-419197,2126,0,92,267039416,231938716,528990252,2628110,0,0,0,2424,9999,0,0,193,11,0,1980-01-06T03:00:32,56.409418764908274,40.97614735663675,124.40418649668209
315964833,777000,30354000,-415616,2126,0,92,267039416,231938716,528990252,2628271,0,0,0,2449,9999,0,0,202,11,0,1980-01-06T03:00:33,56.409418764908274,40.97614735663675,124.40418649668209
315964834,620000,30354999,484576,2126,0,92,267039416,231938716,528990252,2628439,0,0,0,2475,9999,0,0,209,11,0,1980-01-06T03:00:34,56.409418764908274,40.97614735663675,124.40418649668209
315964835,438000,30356000,-410245,2126,0,92,267039416,231938716,528990252,2628612,0,0,0,2500,9999,0,0,213,11,0,1980-01-06T03:00:35,56.409418764908274,40.97614735663675,124.40418649668209
315964836,550000,30357000,-406664,2126,0,92,267039416,231938716,528990252,2628793,0,0,0,2525,9999,0,0,221,11,0,1980-01-06T03:00:36,56.409418764908274,40.97614735663675,124.40418649668209
315964837,395000,30358000,-471515,2126,0,92,267039416,231938716,528990252,2628979,0,0,0,2550,9999,0,0,228,11,0,1980-01-06T03:00:37,56.409418764908274,40.97614735663675,124.40418649668209
315964838,481000,30359000,-470935,2126,0,92,267039416,231938716,528990252,2629172,0,0,0,2574,9999,0,0,233,11,0,1980-01-06T03:00:38,56.409418764908274,40.97614735663675,124.40418649668209
315964839,862000,30360000,-470361,2126,0,92,267039416,231938716,528990252,2629371,0,0,0,2598,9999,0,0,242,11,0,1980-01-06T03:00:39,56.409418764908274,40.97614735663675,124.40418649668209
315964840,706000,30361000,-469728,2126,0,92,267039416,231938716,528990252,2629578,0,0,0,2622,9999,0,0,249,11,0,1980-01-06T03:00:40,56.409418764908274,40.97614735663675,124.40418649668209
315964841,551000,30362000,-469089,2126,0,92,267039416,231938716,528990252,2629791,0,0,0,2646,9999,0,0,0,11,0,1980-01-06T03:00:41,56.409418764908274,40.97614735663675,124.40418649668209
315964842,637000,30362996,-468241,2126,0,92,267039416,231938716,528990252,2630011,0,0,0,2669,9999,0,0,5,11,0,1980-01-06T03:00:42,56.409418764908274,40.97614735663675,124.40418649668209
315964843,213000,30363500,-467813,2126,3,92,267036213,231936513,528985691,23866,25,22,45,1494,868,0,4,11,11,0,1980-01-06T03:00:43,56.4094811246028,40.97621816644328,65.03930211392185
315964843,494000,30364000,-467515,2126,3,92,267037851,231936982,528986164,10812,12,-2,-7,187,575,0,5,13,11,0,1980-01-06T03:00:43,56.4093891040752,40.97610152989697,77.52283628763695
315964844,607000,30365000,-466847,2126,3,92,267038136,231937569,528987546,10466,-2,4,5,197,575,0,5,21,11,0,1980-01-06T03:00:44,56.40941287709214,40.97614304581555,92.35510148697202
315964845,720000,30366000,-466182,2126,3,221,267038918,231938249,528989360,7909,30,19,35,257,422,0,6,29,11,0,1980-01-06T03:00:45,56.4094254814579,40.976143142336944,113.19933632975754
1601799966,229000,30367000,-465475,2126,3,221,267039317,231938571,528990179,5761,49,25,41,210,254,0,7,33,11,0,2020-10-04T11:26:06,56.409427842456935,40.976140139437604,122.85651597740696
1601799967,341000,30368000,-464733,2126,3,221,267039343,231938630,528990297,4526,81,43,90,181,254,0,7,41,11,0,2020-10-04T11:26:07,56.40942934257365,40.97614459325147,124.16212013403835
1601799968,185000,30369000,-463976,2126,3,221,267039346,231938656,528990343,3804,108,92,93,180,215,0,8,48,11,0,2020-10-04T11:26:08,56.409430183213644,40.97614745434444,124.65216308591941
1601799969,271000,30370000,-463207,2126,3,221,267039427,231938753,528990560,3242,125,124,137,162,215,0,8,53,11,0,2020-10-04T11:26:09,56.409431631681514,40.9761507132272,127.1500446952726
1601799971,383000,30371000,-462409,2126,3,221,267039384,231938732,528990562,2886,99,115,141,145,215,0,8,61,11,0,2020-10-04T11:26:11,56.409435189851564,40.976152712553194,126.91090835956979
1601799971,227000,30372000,-461592,2126,3,221,267039433,231938824,528990598,2566,68,67,93,137,213,0,9,68,11,0,2020-10-04T11:26:11,56.409429697887404,40.976158759080775,127.74923479833787
1601799972,339000,30373000,-460755,2126,3,221,267039392,231938833,528990551,2326,37,37,55,132,213,0,9,76,11,0,2020-10-04T11:26:12,56.409429236837816,40.976164214915414,127.21911451599594
1601799973,156000,30374000,-459906,2126,3,221,267039402,231938894,528990582,2160,18,28,25,134,213,0,9,80,11,0,2020-10-04T11:26:13,56.40942721988455,40.97617061288952,127.7404223366157
1601799975,268000,30375000,-459041,2126,3,221,267039432,231938974,528990618,2071,37,30,36,140,213,0,9,88,11,0,2020-10-04T11:26:15,56.40942338970461,40.97617721006883,128.45585113658615
1601799975,380000,30376000,-458157,2126,3,221,267039491,231939004,528990684,2006,55,21,49,141,213,0,9,96,11,0,2020-10-04T11:26:15,56.40942186496789,40.97617461185641,129.36091888608274
1601799976,197000,30377000,-457256,2126,3,221,267039527,231939050,528990739,1937,35,20,46,149,213,0,9,100,11,0,2020-10-04T11:26:16,56.40942030783135,40.976176413549766,130.13633192682397
1601799977,309000,30378000,-456340,2126,3,221,267039529,231939054,528990742,1860,26,25,30,141,213,0,9,108,11,0,2020-10-04T11:26:17,56.409420147705106,40.976176690297,130.18418800365242
1601799979,152000,30379000,-455413,2126,3,221,267039504,231939071,528990709,1782,8,33,26,129,213,0,9,115,11,0,2020-10-04T11:26:19,56.409419086129134,40.97618142494653,129.8665446073495
1601799979,263000,30380000,-454475,2126,3,221,267039536,231939142,528990769,1714,74,95,47,137,213,0,9,123,11,0,2020-10-04T11:26:19,56.409416776943615,40.97618670898893,130.75759890883793
1601799981,348000,30381000,-453521,2126,3,221,267039528,231939155,528990739,1674,29,30,58,131,213,0,9,128,11,0,2020-10-04T11:26:21,56.409415100492915,40.97618914865179,130.52144270434263
1601799982,192000,30382000,-452554,2126,3,221,267039535,231939161,528990763,1634,29,20,39,133,213,0,9,135,11,0,2020-10-04T11:26:22,56.4094156032506,40.976189138879946,130.7723720926611
1601799982,303000,30383000,-451574,2126,3,221,267039508,231939140,528990751,1591,5,-4,5,78,213,0,9,143,11,0,2020-10-04T11:26:22,56.40941756214756,40.97618943863918,130.48344556240377
1601799983,415000,30384000,-450587,2126,3,221,267039507,231939140,528990772,1548,21,21,18,121,213,0,9,151,11,0,2020-10-04T11:26:23,56.40941866202079,40.97618954486229,130.65420114912786
1601799985,232000,30385000,-449588,2126,3,221,267039490,231939118,528990753,1512,20,5,9,103,213,0,9,155,11,0,2020-10-04T11:26:25,56.40941975737949,40.97618866009208,130.34510557163213
1601799986,343000,30386000,-448581,2126,3,221,267039483,231939107,528990749,1489,11,9,13,124,213,0,9,163,11,0,2020-10-04T11:26:26,56.409420493609176,40.97618805837224,130.2426389145292
1601799986,186000,30387000,-447568,2126,3,221,267039466,231939078,528990741,1465,-4,-1,1,70,213,0,9,170,11,0,2020-10-04T11:26:26,56.40942247889818,40.976186317513374,129.99977909980655
1601799988,271000,30388000,-446551,2126,3,221,267039418,231939025,528990701,1405,1,6,-2,51,213,0,9,175,11,0,2020-10-04T11:26:28,56.409425802462856,40.97618493441055,129.2737986308197
1601799989,382000,30389000,-445533,2126,3,221,267039363,231938965,528990649,1303,-2,1,-1,55,213,0,9,183,11,0,2020-10-04T11:26:29,56.40942926855172,40.97618343878046,128.39322231855436
1601799990,225000,30390000,-444515,2126,3,221,267039340,231938952,528990630,1282,-8,-4,-10,113,213,0,9,190,11,0,2020-10-04T11:26:30,56.40943026128688,40.976184292034,128.0917163880374
1601799991,336000,30391000,-443499,2126,3,221,267039308,231938924,528990610,1249,-17,-13,-15,100,213,0,9,198,11,0,2020-10-04T11:26:31,56.409432448491174,40.976184266819935,127.68986848498619
1601799992,421000,30392000,-442489,2126,3,221,267039291,231938909,528990589,1227,-10,-10,-1,78,213,0,9,203,11,0,2020-10-04T11:26:32,56.40943310108938,40.97618423813765,127.38950826682404
1601799993,264000,30393000,-441483,2126,3,221,267039279,231938898,528990570,1208,2,3,2,102,213,0,9,210,11,0,2020-10-04T11:26:33,56.40943337443674,40.976184167533155,127.1412049197591
1601799994,375000,30394000,-440473,2126,3,221,267039266,231938887,528990567,1222,-8,-10,13,158,213,0,9,218,11,0,2020-10-04T11:26:34,56.409434499230485,40.97618420315185,127.02200657499172
1601799995,191000,30395000,-439451,2126,3,221,267039257,231938882,528990566,1222,1,10,12,121,213,0,9,222,11,0,2020-10-04T11:26:35,56.40943520314137,40.97618454766844,126.95794400425326
1601799996,302000,30396000,-438414,2126,3,221,267039254,231938884,528990556,1221,5,13,7,123,212,0,9,230,11,0,2020-10-04T11:26:36,56.40943477761458,40.97618511093496,126.86936772932076
1601799996,414000,30397000,-437364,2126,3,221,267039254,231938885,528990537,1214,1,-2,4,103,212,0,9,238,11,0,2020-10-04T11:26:36,56.409433784535786,40.97618523323342,126.71472332391204
1601799997,257000,30398000,-436303,2126,3,221,267039250,231938874,528990530,1207,4,5,-7,79,212,0,9,245,11,0,2020-10-04T11:26:37,56.40943420227079,40.97618431284327,126.59979723482846
1601799998,341000,30399000,-435230,2126,3,221,267039257,231938879,528990548,1203,8,9,13,125,212,0,9,250,11,0,2020-10-04T11:26:38,56.40943445597138,40.97618418077309,126.79711796216138
1601799999,184000,30400000,-434144,2126,3,221,267039266,231938885,528990563,1204,11,11,8,127,212,0,9,1,11,0,2020-10-04T11:26:39,56.40943439860048,40.97618395855495,126.98143020208616
1601800001,295000,30401000,-433044,2126,3,221,267039278,231938900,528990566,1198,-1,-7,-2,98,212,0,9,9,11,0,2020-10-04T11:26:41,56.409433134063086,40.97618451835324,127.11096333187804
1601800002,406000,30402000,-431930,2126,3,221,267039281,231938901,528990565,1190,3,-1,-6,91,212,0,9,17,11,0,2020-10-04T11:26:42,56.409432865882806,40.97618432198208,127.11879206714454
1601800002,222000,30403000,-430805,2126,3,221,267039305,231938938,528990590,1164,7,-12,16,76,186,0,10,21,11,0,2020-10-04T11:26:42,56.40943093744029,40.97618629766747,127.56152626051616
1601800004,333000,30404000,-429669,2126,3,221,267039317,231938961,528990607,1158,9,12,8,114,186,0,10,29,11,0,2020-10-04T11:26:44,56.40942997605225,40.97618783585283,127.83670464509147
1601800005,175000,30405000,-428527,2126,3,221,267039316,231938986,528990602,1160,-4,4,2,67,186,0,10,36,11,0,2020-10-04T11:26:45,56.40942855770907,40.97619099953618,127.8815755663674
1601800005,260000,30406000,-427382,2126,3,221,267039319,231938998,528990622,1159,-4,3,14,115,186,0,10,41,11,0,2020-10-04T11:26:45,56.409428793308436,40.9761921484474,128.10424423044196
1601800006,372000,30407000,-426230,2126,3,221,267039330,231939008,528990599,1151,8,6,6,106,186,0,10,49,11,0,2020-10-04T11:26:46,56.40942653870931,40.97619220297631,127.99487750852239
1601800007,215000,30408000,-425073,2126,3,221,267039350,231939027,528990635,1149,22,14,22,116,186,0,10,56,11,0,2020-10-04T11:26:47,56.409426265730445,40.97619240218207,128.4472322565206
1601800009,327000,30409000,-423910,2126,3,221,267039350,231939053,528990642,1151,12,21,8,120,186,0,10,64,11,0,2020-10-04T11:26:49,56.409425338076844,40.97619558193979,128.5998695826995
1601800010,412000,30410000,-422740,2126,3,221,267039345,231939056,528990623,1150,3,1,5,114,186,0,10,69,11,0,2020-10-04T11:26:50,56.409424529284685,40.97619647995078,128.43159621347718
1601800011,255000,30411000,-421560,2126,3,221,267039343,231939064,528990633,1147,11,5,8,116,186,0,10,76,11,0,2020-10-04T11:26:51,56.40942474665151,40.97619767078407,128.53556702457644
1601800012,366000,30412000,-420373,2126,3,221,267039367,231939082,528990686,1153,29,0,37,117,186,0,10,84,11,0,2020-10-04T11:26:52,56.409425141462066,40.97619732279834,129.1426138061259
1601800012,183000,30413000,-419179,2126,3,221,267039409,231939084,528990706,1157,63,3,13,84,194,0,9,88,11,0,2020-10-04T11:26:52,56.409423664913646,40.976193106022315,129.4919049916194
1601800014,293000,30414000,-417972,2126,3,221,267039425,231939080,528990706,1154,25,25,14,94,194,0,9,96,11,0,2020-10-04T11:26:54,56.4094229574626,40.97619091725856,129.5442247940898
1601800014,404000,30415000,-416751,2126,3,221,267039423,231939083,528990696,1144,10,25,4,72,186,0,10,104,11,0,2020-10-04T11:26:54,56.40942242640031,40.9761914965999,129.46345344782563
1601800015,247000,30416000,-415517,2126,3,221,267039415,231939082,528990693,1132,5,4,16,98,186,0,10,111,11,0,2020-10-04T11:26:55,56.409422778237044,40.97619222408672,129.4014193540819
1601800017,332000,30417000,-414271,2126,3,221,267039479,231939116,528990797,1129,77,30,89,102,186,0,10,116,11,0,2020-10-04T11:26:57,56.40942266292497,40.97618958394972,130.6584283594394
1601800018,174000,30418000,-413005,2126,3,221,267039515,231939135,528990843,1131,36,38,68,111,186,0,10,123,11,0,2020-10-04T11:26:58,56.409421983126414,40.976188083585825,131.2609159057414
1601800018,285000,30419000,-411722,2126,3,221,267039509,231939138,528990851,1125,19,16,47,104,186,0,10,131,11,0,2020-10-04T11:26:58,56.40942257231999,40.97618908781943,131.313378867074
1601800020,397000,30420000,-410421,2126,3,221,267039506,231939127,528990851,1117,22,10,24,102,186,0,10,139,11,0,2020-10-04T11:27:00,56.40942328137268,40.97618806120722,131.26094059810976
1601800020,213000,30421000,-409105,2126,3,221,267039505,231939126,528990843,1114,13,14,8,96,186,0,10,143,11,0,2020-10-04T11:27:00,56.40942298942492,40.976188045132,131.18649470374166
1601800022,323000,30422000,-407773,2126,3,221,267039512,231939129,528990840,1113,20,12,21,118,186,0,10,151,11,0,2020-10-04T11:27:02,56.409422297843896,40.976187668465215,131.20162697369872
1601800022,166000,30423000,-406422,2126,3,221,267039504,231939136,528990867,1100,7,15,16,102,186,0,10,158,11,0,2020-10-04T11:27:02,56.40942374779609,40.97618937433834,131.4185200787567
1601800023,250000,30424000,-405056,2126,3,221,267039490,231939126,528990893,1081,1,-10,12,62,186,0,10,163,11,0,2020-10-04T11:27:03,56.40942632088914,40.976189638478694,131.5403462364052
1601800024,360000,30425000,-403678,2126,3,221,267039497,231939125,528990913,1071,13,-4,3,60,186,0,10,171,11,0,2020-10-04T11:27:04,56.40942696829532,40.97618877261857,131.73255956186406
1601800025,202000,30426000,-402293,2126,3,221,267039493,231939127,528990925,1066,5,-1,-2,63,186,0,10,178,11,0,2020-10-04T11:27:05,56.40942769232691,40.976189442107675,131.82306902534197
1601800027,313000,30427000,-400906,2126,3,221,267039470,231939119,528990894,1065,-15,-2,-26,113,186,0,10,186,11,0,2020-10-04T11:27:07,56.40942784355773,40.976190906852814,131.43974132162975
1601800027,397000,30428000,-399522,2126,3,221,267039471,231939121,528990894,1055,8,6,6,94,186,0,10,191,11,0,2020-10-04T11:27:07,56.4094276889665,40.97619104522635,131.45117417665531
1601800028,239000,30429000,-398133,2126,3,221,267039462,231939113,528990890,1046,6,5,15,102,186,0,10,198,11,0,2020-10-04T11:27:08,56.40942839098805,40.976191022847836,131.351237406917
1601800030,349000,30430000,-396738,2126,3,221,267039470,231939123,528990925,1044,11,19,29,111,186,0,10,206,11,0,2020-10-04T11:27:10,56.40942918758155,40.97619139604613,131.71248689468092
1601800030,165000,30431000,-395332,2126,3,221,267039467,231939125,528990933,1045,11,8,19,114,186,0,10,210,11,0,2020-10-04T11:27:10,56.409429656391914,40.976191959312175,131.77385284507372
1601800032,275000,30432000,-393912,2126,3,221,267039466,231939128,528990934,1046,16,4,15,106,186,0,10,218,11,0,2020-10-04T11:27:12,56.409429615389534,40.97619243243028,131.78888981458402
1601800032,385000,30433000,-392476,2126,3,221,267039447,231939122,528990922,1038,8,9,5,87,186,0,10,226,11,0,2020-10-04T11:27:12,56.40943038661265,40.97619371687982,131.58779822441883
1601800033,227000,30434000,-391024,2126,3,221,267039436,231939121,528990918,1029,-1,3,7,93,186,0,10,233,11,0,2020-10-04T11:27:13,56.40943085820283,40.976194763036005,131.50490309840532
1601800035,311000,30435000,-389556,2126,3,221,267039428,231939106,528990908,1026,1,-10,-6,84,186,0,10,238,11,0,2020-10-04T11:27:15,56.40943154902314,40.97619377834611,131.33376698270888
1601800035,154000,30436000,-388072,2126,3,221,267039414,231939094,528990904,1025,-5,5,0,39,186,0,10,245,11,0,2020-10-04T11:27:15,56.40943272966617,40.97619379789005,131.1984335973683
1601800037,264000,30437000,-386574,2126,3,221,267039406,231939094,528990909,1024,5,10,6,97,186,0,10,253,11,0,2020-10-04T11:27:17,56.409433429930154,40.97619464767525,131.20666844134067
1601800038,375000,30438000,-385064,2126,3,221,267039426,231939116,528990942,1025,28,22,22,102,186,0,10,5,11,0,2020-10-04T11:27:18,56.409432860727364,40.976195213775775,131.64491663604457
1601800039,191000,30439000,-383540,2126,3,221,267039429,231939123,528990930,1021,15,5,4,83,186,0,10,9,11,0,2020-10-04T11:27:19,56.409431751673225,40.976195751194666,131.58288165433748
1601800039,301000,30440000,-382000,2126,3,221,267039435,231939121,528990943,1023,-2,-9,12,71,186,0,10,17,11,0,2020-10-04T11:27:19,56.40943215681706,40.976194869259146,131.7089792074538
1601800041,411000,30441000,-380442,2126,3,221,267039428,231939109,528990954,1031,0,-13,2,57,186,0,10,25,11,0,2020-10-04T11:27:21,56.40943368738334,40.976194145241124,131.7278364780077
1601800041,227000,30442000,-378880,2126,3,221,267039416,231939090,528990953,1037,-8,2,-1,63,186,0,10,29,11,0,2020-10-04T11:27:21,56.40943524751388,40.97619309625036,131.60045183161625
1601800043,337000,30443000,-377317,2126,3,221,267039395,231939068,528990926,1028,1,2,3,96,186,0,10,37,11,0,2020-10-04T11:27:23,56.40943617130874,40.976192636372794,131.20800740973917
1601800043,179000,30444000,-375753,2126,3,221,267039410,231939079,528990955,1034,15,7,18,117,186,0,10,44,11,0,2020-10-04T11:27:23,56.409436225376325,40.97619238830741,131.55214290922595
1601800044,289000,30445000,-374182,2126,3,221,267039420,231939143,528990935,1058,16,104,-36,116,180,0,11,52,11,0,2020-10-04T11:27:24,56.40943152730056,40.97619915316953,131.65949834109986
1601800046,373000,30446000,-372603,2126,3,221,267039403,231939162,528990875,1078,-20,6,-15,102,185,0,10,57,11,0,2020-10-04T11:27:26,56.40942857427043,40.97620328263122,131.15761331777472
1601800047,215000,30447000,-371023,2126,3,221,267039397,231939173,528990869,1088,2,5,-5,76,185,0,10,64,11,0,2020-10-04T11:27:27,56.40942807542179,40.97620526525162,131.1224781077198
1601800047,325000,30448000,-369445,2126,3,221,267039387,231939166,528990857,1089,-7,-1,-8,111,185,0,10,72,11,0,2020-10-04T11:27:27,56.40942838738405,40.976205471395076,130.955351325398
1601800048,435000,30449000,-367866,2126,3,221,267039366,231939159,528990851,1096,-13,-3,2,88,185,0,10,80,11,0,2020-10-04T11:27:28,56.40942961873453,40.97620684599343,130.7922585949965
1601800049,251000,30450000,-366289,2126,3,221,267039355,231939143,528990858,1109,2,-12,0,83,185,0,10,84,11,0,2020-10-04T11:27:29,56.409431372701356,40.97620605767521,130.74657570895212
1601800050,362000,30451000,-364712,2126,3,221,267039352,231939127,528990848,1123,7,-5,-6,92,185,0,10,92,11,0,2020-10-04T11:27:30,56.409431830179535,40.97620441957145,130.59269650153036
1601800051,204000,30452000,-363130,2126,3,221,267039346,231939106,528990834,1123,2,8,0,81,185,0,10,99,11,0,2020-10-04T11:27:31,56.40943250363416,40.9762024886454,130.3748261842458
1601800053,288000,30453000,-361544,2126,3,221,267039350,231939108,528990829,1122,11,3,2,83,185,0,10,104,11,0,2020-10-04T11:27:33,56.409431931177004,40.97620230834937,130.35713933539697
1601800053,398000,30454000,-359952,2126,3,221,267039354,231939088,528990811,1121,13,-4,3,59,185,0,10,112,11,0,2020-10-04T11:27:33,56.40943179203786,40.976199437489704,130.15134618297049
1601800055,240000,30455000,-358362,2126,3,221,267039361,231939087,528990820,1125,11,3,-1,70,185,0,10,119,11,0,2020-10-04T11:27:35,56.409431892904784,40.97619857162913,130.2519281534551
1601800055,351000,30456000,-356771,2126,3,221,267039333,231939065,528990797,1117,-17,-1,-3,65,185,0,10,127,11,0,2020-10-04T11:27:35,56.40943341079873,40.976198855314244,129.86356541748862
1601800057,166000,30457000,-355175,2126,3,221,267039308,231939046,528990792,1105,-21,-13,10,56,185,0,10,131,11,0,2020-10-04T11:27:37,56.40943550642354,40.97619918722496,129.64855964699737
1601800058,277000,30458000,-353577,2126,3,221,267039295,231939032,528990789,1102,3,0,-1,63,185,0,10,139,11,0,2020-10-04T11:27:38,56.409436778384375,40.97619885594922,129.5184774861258
1601800058,387000,30459000,-351974,2126,3,221,267039287,231939024,528990777,1098,-4,8,7,78,185,0,10,147,11,0,2020-10-04T11:27:38,56.40943702644346,40.976198727347764,129.35607670989742
1601800060,202000,30460000,-350368,2126,3,221,267039284,231939019,528990768,1092,-1,4,14,102,185,0,10,151,11,0,2020-10-04T11:27:40,56.409436993993026,40.97619843452544,129.25043498207225
1601800061,312000,30461000,-348760,2126,3,221,267039282,231939013,528990771,1092,3,-7,15,92,185,0,10,159,11,0,2020-10-04T11:27:41,56.409437550343505,40.97619791318151,129.24530376906702
1601800061,154000,30462000,-347148,2126,3,221,267039287,231939012,528990786,1102,3,-1,20,127,185,0,10,166,11,0,2020-10-04T11:27:41,56.409438062282,40.976197259767105,129.38751254242257
1601800062,265000,30463000,-345529,2126,3,221,267039280,231939004,528990779,1117,3,5,14,133,185,0,10,174,11,0,2020-10-04T11:27:42,56.40943850228845,40.97619702494238,129.2709393563728
1601800063,349000,30464000,-343904,2126,3,221,267039272,231938993,528990746,1121,12,7,-9,84,185,0,10,179,11,0,2020-10-04T11:27:43,56.4094378541218,40.976196529445645,128.9227221587717
1601800065,190000,30465000,-342274,2126,3,221,267039274,231938997,528990746,1120,-2,1,8,101,185,0,10,186,11,0,2020-10-04T11:27:45,56.40943754493915,40.97619680619283,128.94558786350953
1601800066,301000,30466000,-340640,2126,3,221,267039276,231938994,528990745,1116,12,4,3,80,185,0,10,194,11,0,2020-10-04T11:27:46,56.40943752946196,40.97619622685122,128.93472785975896
1601800066,411000,30467000,-339001,2126,3,221,267039282,231938997,528990747,1117,6,9,15,120,185,0,10,202,11,0,2020-10-04T11:27:46,56.409437142787326,40.9761959564072,128.9873337552524
1601800068,226000,30468000,-337353,2126,3,221,267039280,231938992,528990729,1117,9,0,10,111,185,0,10,206,11,0,2020-10-04T11:27:48,56.40943660668864,40.976195557361606,128.81089788387786
1601800069,336000,30469000,-335698,2126,3,221,267039290,231938999,528990736,1115,10,9,10,112,185,0,10,214,11,0,2020-10-04T11:27:49,56.40943604629906,40.97619535121839,128.9363740446954
1601800069,178000,30470000,-334039,2126,3,221,267039282,231938993,528990713,1110,0,-5,0,62,185,0,10,221,11,0,2020-10-04T11:27:49,56.409435649707085,40.97619546721361,128.68959778872883
1601800071,262000,30471000,-332373,2126,3,221,267039276,231938987,528990698,1105,1,-2,4,93,185,0,10,226,11,0,2020-10-04T11:27:51,56.409435537639006,40.97619537076242,128.5178164643702
1601800071,372000,30472000,-330698,2126,3,221,267039274,231938986,528990673,1099,14,8,4,91,185,0,10,234,11,0,2020-10-04T11:27:51,56.40943445751903,40.97619546091042,128.29758149216582
1601800073,214000,30473000,-329017,2126,3,221,267039278,231938992,528990669,1091,12,10,11,98,185,0,10,241,11,0,2020-10-04T11:27:53,56.40943373852377,40.976195769808015,128.30273652676146
1601800074,325000,30474000,-327328,2126,3,221,267039266,231938974,528990651,1074,5,-2,7,81,185,0,10,249,11,0,2020-10-04T11:27:54,56.40943440494738,40.976194843115195,128.03736771972382
1601800074,409000,30475000,-325634,2126,3,221,267039283,231938984,528990677,1068,19,16,26,99,185,0,10,254,11,0,2020-10-04T11:27:54,56.4094342460554,40.97619426030478,128.3612388494949
1601800076,251000,30476000,-323933,2126,3,221,267039291,231938991,528990690,1075,23,13,23,123,185,0,10,5,11,0,2020-10-04T11:27:56,56.40943409673757,40.976194266608,128.5283418109593
1601800076,362000,30477000,-322230,2126,3,221,267039283,231938986,528990660,1087,4,17,-2,100,185,0,10,13,11,0,2020-10-04T11:27:56,56.40943330329181,40.976194504901585,128.22688263121094
1601800077,177000,30478000,-320529,2126,3,221,267039272,231938976,528990635,1094,1,-3,-3,101,185,0,10,17,11,0,2020-10-04T11:27:57,56.40943317299119,40.976194450372766,127.93640345381444
1601800079,287000,30479000,-318828,2126,3,221,267039250,231938953,528990605,1089,-3,-2,-6,116,185,0,10,25,11,0,2020-10-04T11:27:59,56.40943405326574,40.97619397441987,127.51116374622998
1601800080,398000,30480000,-317131,2126,3,221,267039234,231938938,528990579,1091,-10,-9,-12,121,185,0,10,33,11,0,2020-10-04T11:28:00,56.40943440095729,40.97619383951499,127.17332988456506
1601800081,240000,30481000,-315441,2126,3,221,267039231,231938938,528990595,1096,-6,-3,2,90,185,0,10,40,11,0,2020-10-04T11:28:01,56.40943536536292,40.976194158184654,127.29408094749695
1601800082,323000,30482000,-313755,2126,3,221,267039223,231938935,528990586,1086,7,6,-2,79,185,0,10,45,11,0,2020-10-04T11:28:02,56.40943551719909,40.97619464107516,127.17481024290937
1601800083,164000,30483000,-312070,2126,3,221,267039217,231938932,528990584,1081,-4,-4,8,78,185,0,10,52,11,0,2020-10-04T11:28:03,56.409435903873806,40.97619491151923,127.12220434758366
1601800084,274000,30484000,-310381,2126,3,221,267039212,231938935,528990587,1090,-2,10,3,105,185,0,10,60,11,0,2020-10-04T11:28:04,56.40943618816087,40.976195809530665,127.13719368108231
1601800084,384000,30485000,-308687,2126,3,221,267039147,231938887,528990498,1107,-52,-29,-55,132,185,0,10,68,11,0,2020-10-04T11:28:04,56.40943779201856,40.97619684371621,125.95016841243493
1601800086,199000,30486000,-306997,2126,3,221,267039143,231938894,528990509,1108,-9,-16,-20,117,185,0,10,72,11,0,2020-10-04T11:28:06,56.40943822108588,40.97619812469843,126.05048747047445
1601800086,309000,30487000,-305308,2126,3,221,267039141,231938887,528990504,1106,-1,-6,-9,108,185,0,10,80,11,0,2020-10-04T11:28:06,56.409438429009136,40.97619748105576,125.97508732916572
1601800087,420000,30488000,-303626,2126,3,221,267039142,231938885,528990464,1095,-3,-1,-47,102,185,0,10,88,11,0,2020-10-04T11:28:07,56.409436483224326,40.97619713023559,125.63880346684361
1601800088,235000,30489000,-301950,2126,3,221,267039135,231938883,528990440,1100,-20,-11,-26,119,185,0,10,92,11,0,2020-10-04T11:28:08,56.40943578424361,40.976197629201494,125.40238582066313
1601800090,345000,30490000,-300281,2126,3,221,267039129,231938876,528990430,1110,-9,-17,-21,119,185,0,10,100,11,0,2020-10-04T11:28:10,56.409435969658475,40.976197410451846,125.26862717288671
1601800090,187000,30491000,-298617,2126,3,221,267039135,231938879,528990456,1110,-4,-3,13,101,185,0,10,107,11,0,2020-10-04T11:28:10,56.40943677543386,40.97619714000765,125.52115603655373
1601800092,298000,30492000,-296951,2126,3,221,267039117,231938864,528990421,1102,-10,-4,-17,101,185,0,10,115,11,0,2020-10-04T11:28:12,56.409436788916196,40.97619721754946,125.09999712153048
1601800092,382000,30493000,-295291,2126,3,221,267039139,231938882,528990449,1106,17,11,6,108,185,0,10,120,11,0,2020-10-04T11:28:12,56.40943605454958,40.97619708200999,125.49043687610727
1601800093,225000,30494000,-293636,2126,3,221,267039160,231938904,528990498,1112,16,21,27,119,185,0,10,127,11,0,2020-10-04T11:28:13,56.40943622383317,40.97619754188759,126.06614401954344
1601800095,336000,30495000,-291981,2126,3,221,267039172,231938919,528990504,1118,13,7,12,117,185,0,10,135,11,0,2020-10-04T11:28:15,56.40943510835175,40.976198101685256,126.22066752221075
1601800096,152000,30496000,-290330,2126,3,221,267039187,231938925,528990513,1119,9,0,-1,70,185,0,10,139,11,0,2020-10-04T11:28:16,56.409434413990304,40.97619724212722,126.38006084731924
1601800097,264000,30497000,-288687,2126,3,221,267039187,231938928,528990529,1120,-6,-1,9,90,185,0,10,147,11,0,2020-10-04T11:28:17,56.409435061789466,40.97619760902253,126.52422664447845
1601800098,375000,30498000,-287047,2126,3,221,267039180,231938923,528990542,1121,-3,0,18,106,185,0,10,155,11,0,2020-10-04T11:28:18,56.40943634833688,40.97619774109305,126.58513975174027
1601800099,217000,30499000,-285398,2126,3,221,267039190,231938932,528990575,1128,18,16,30,124,185,0,10,162,11,0,2020-10-04T11:28:19,56.4094369816562,40.97619777954655,126.93445500963733
1601800100,301000,30500000,-283736,2126,3,221,267039188,231938932,528990564,1120,7,11,19,114,185,0,10,167,11,0,2020-10-04T11:28:20,56.40943654807598,40.97619799199303,126.83446970471918
1601800100,412000,30501000,-282064,2126,3,221,267039182,231938924,528990560,1108,7,4,4,95,185,0,10,175,11,0,2020-10-04T11:28:20,56.40943708065915,40.976197650945004,126.74706386068657
1601800102,253000,30502000,-280385,2126,3,221,267039190,231938933,528990597,1102,7,14,25,115,185,0,10,182,11,0,2020-10-04T11:28:22,56.409438025679414,40.976197901844984,127.12134567236193
1601800103,363000,30503000,-278694,2126,3,221,267039191,231938940,528990610,1100,8,14,25,112,184,0,10,190,11,0,2020-10-04T11:28:23,56.40943827171911,40.97619865171076,127.25920983505043
1601800104,179000,30504000,-276990,2126,3,221,267039195,231938946,528990634,1106,8,8,32,123,184,0,10,194,11,0,2020-10-04T11:28:24,56.409438943915156,40.97619896060837,127.49760833386736
1601800105,289000,30505000,-275275,2126,3,221,267039215,231938963,528990655,1105,18,13,28,116,184,0,10,202,11,0,2020-10-04T11:28:25,56.409438023766015,40.976198915216855,127.81775533692438
1601800106,399000,30506000,-273550,2126,3,221,267039221,231938961,528990647,1096,4,-2,12,100,184,0,10,210,11,0,2020-10-04T11:28:26,56.40943738551648,40.97619803328064,127.76892029184056
1601800107,214000,30507000,-271819,2126,3,221,267039234,231938964,528990658,1097,9,7,7,109,184,0,10,214,11,0,2020-10-04T11:28:27,56.40943705065282,40.97619701927397,127.92573609775143
1601800108,324000,30508000,-270083,2126,3,221,267039235,231938963,528990651,1098,-2,0,-3,104,184,0,10,222,11,0,2020-10-04T11:28:28,56.40943669543113,40.97619679075232,127.86797426204478
1601800108,166000,30509000,-268342,2126,3,221,267039248,231938975,528990677,1103,9,5,20,117,184,0,10,229,11,0,2020-10-04T11:28:28,56.409436664346,40.976196877431434,128.1823933884559
1601800110,276000,30510000,-266595,2126,3,221,267039243,231938966,528990663,1094,2,3,7,110,184,0,10,237,11,0,2020-10-04T11:28:30,56.40943669265119,40.97619630786181,128.01223533724954
1601800110,360000,30511000,-264845,2126,3,221,267039235,231938953,528990638,1075,0,1,-2,64,184,0,10,242,11,0,2020-10-04T11:28:30,56.40943654007926,40.97619556776813,127.72340325238756
1601800111,201000,30512000,-263092,2126,3,221,267039240,231938953,528990649,1071,3,-1,18,99,184,0,10,249,11,0,2020-10-04T11:28:31,56.40943680422042,40.97619503665204,127.83591947057553
1601800113,311000,30513000,-261331,2126,3,221,267039244,231938953,528990667,1072,7,2,19,108,184,0,10,1,11,0,2020-10-04T11:28:33,56.40943747263906,40.97619461175916,128.00256958335373
1601800114,421000,30514000,-259561,2126,3,221,267039243,231938948,528990668,1067,5,0,11,102,184,0,10,9,11,0,2020-10-04T11:28:34,56.40943782408332,40.976194106490276,127.98858303689948
1601800115,237000,30515000,-257783,2126,3,221,267039236,231938932,528990641,1053,2,3,1,85,184,0,10,13,11,0,2020-10-04T11:28:35,56.409437662828466,40.976192893277975,127.67638385544954
1601800116,347000,30516000,-256001,2126,3,221,267039240,231938937,528990660,1054,2,2,24,118,184,0,10,21,11,0,2020-10-04T11:28:36,56.40943813565331,40.97619307987725,127.86950379255819
1601800116,189000,30517000,-254213,2126,3,221,267039248,231938947,528990686,1066,18,14,30,123,184,0,10,28,11,0,2020-10-04T11:28:36,56.4094384850781,40.97619345307577,128.15578218522367
1601800118,272000,30518000,-252416,2126,3,221,267039230,231938941,528990674,1094,-16,1,18,145,184,0,10,33,11,0,2020-10-04T11:28:38,56.40943919982226,40.97619463130316,127.9588675757566
1601800119,383000,30519000,-250614,2126,3,221,267039208,231938930,528990653,1112,-12,-2,1,77,184,0,10,41,11,0,2020-10-04T11:28:39,56.409439938595725,40.97619562293143,127.65213427212551
1601800120,225000,30520000,-248812,2126,3,221,267039194,231938924,528990626,1105,-10,-4,-6,93,184,0,10,48,11,0,2020-10-04T11:28:40,56.40943968214022,40.97619637626611,127.34697569139252
1601800120,336000,30521000,-247006,2126,3,221,267039194,231938918,528990619,1098,-1,-7,6,87,184,0,10,56,11,0,2020-10-04T11:28:40,56.40943962867744,40.97619564247549,127.2668971843853
1601800122,152000,30522000,-245195,2126,3,221,267039184,231938911,528990595,1099,-4,-1,-6,107,184,0,10,60,11,0,2020-10-04T11:28:42,56.40943934441529,40.97619584861879,126.99980891797102
1601800123,262000,30523000,-243383,2126,3,221,267039161,231938897,528990524,1108,-14,6,-46,137,184,0,10,68,11,0,2020-10-04T11:28:43,56.40943780256537,40.976196579575195,126.26150862685391
1601800124,372000,30524000,-241574,2126,3,221,267039150,231938891,528990497,1112,-9,-8,-27,119,184,0,10,76,11,0,2020-10-04T11:28:44,56.40943737667067,40.97619701424027,125.96888096180876
1601800124,188000,30525000,-239770,2126,3,221,267039154,231938885,528990500,1116,6,-4,-11,87,184,0,10,80,11,0,2020-10-04T11:28:44,56.409437594143334,40.97619585555651,125.98881157747543
1601800125,298000,30526000,-237965,2126,3,221,267039170,231938871,528990500,1129,32,-4,-6,74,184,0,10,88,11,0,2020-10-04T11:28:45,56.40943737725037,40.97619244380608,126.0048519591963
1601800126,409000,30527000,-236153,2126,3,221,267039188,231938842,528990521,1140,32,-24,24,77,184,0,10,96,11,0,2020-10-04T11:28:46,56.409438826629454,40.97618698513217,126.14975980136111
1601800127,250000,30528000,-234331,2126,3,221,267039193,231938820,528990511,1144,8,-4,2,72,184,0,10,103,11,0,2020-10-04T11:28:47,56.40943912660543,40.97618376344946,126.00752875881172
1601800129,334000,30529000,-232507,2126,3,221,267039184,231938816,528990502,1139,-8,3,-11,94,184,0,10,108,11,0,2020-10-04T11:28:49,56.409439383977265,40.97618423026462,125.88045314024869
1601800130,175000,30530000,-230680,2126,3,221,267039169,231938792,528990492,1143,-16,-37,-8,92,184,0,10,115,11,0,2020-10-04T11:28:50,56.40944091165884,40.97618288844938,125.64742679243041
1601800130,286000,30531000,-228851,2126,3,221,267039164,231938782,528990500,1137,-4,-9,-8,104,184,0,10,123,11,0,2020-10-04T11:28:50,56.409442082099126,40.976182196580574,125.65690354005497
1601800131,396000,30532000,-227018,2126,3,221,267039134,231938766,528990451,1143,-29,0,-29,130,184,0,10,131,11,0,2020-10-04T11:28:51,56.40944212679821,40.976183426501926,125.06537128719128
1601800133,211000,30533000,-225184,2126,3,221,267039107,231938765,528990429,1147,-21,-22,-30,131,184,0,10,135,11,0,2020-10-04T11:28:53,56.40944260772675,40.97618617223145,124.76570238806642
1601800134,321000,30534000,-223350,2126,3,221,267039087,231938766,528990421,1149,-26,-8,-15,121,192,0,9,143,11,0,2020-10-04T11:28:54,56.40944329078157,40.976188418995406,124.61914991023318
1601800134,162000,30535000,-221515,2126,3,221,267039127,231938770,528990426,1174,46,-8,-7,136,192,0,9,150,11,0,2020-10-04T11:28:54,56.40944108379715,40.97618465925876,124.84239113905276
1601800117,246000,30536000,-219678,2126,3,221,267039172,231938784,528990456,1198,37,5,35,132,192,0,9,155,11,0,2020-10-04T11:28:37,56.40943934599138,40.97618159139165,125.3310497295416
1601800118,356000,30537000,-217837,2126,3,221,267039231,231938796,528990503,1211,62,13,44,116,184,0,10,163,11,0,2020-10-04T11:28:38,56.40943776023387,40.97617679180329,126.01254217500522
1601800119,197000,30538000,-215991,2126,3,221,267039276,231938809,528990525,1217,49,19,36,115,184,0,10,170,11,0,2020-10-04T11:28:39,56.40943567400096,40.976173601639495,126.43093186419297
1601800120,307000,30539000,-214139,2126,3,221,267039286,231938808,528990513,1208,20,-1,28,102,184,0,10,178,11,0,2020-10-04T11:28:40,56.40943456203479,40.976172417109105,126.36911217178651
1601800121,391000,30540000,-212285,2126,3,221,267039322,231938822,528990549,1218,47,12,36,130,193,0,9,183,11,0,2020-10-04T11:28:41,56.409433630659386,40.97617030525329,126.87015878918963
1601800122,232000,30541000,-210424,2126,3,221,267039322,231938815,528990530,1225,17,10,19,122,193,0,9,190,11,0,2020-10-04T11:28:42,56.40943303002717,40.97616944916395,126.68649087426229
1601800123,342000,30542000,-208567,2126,3,221,267039344,231938839,528990535,1213,19,12,12,102,193,0,9,198,11,0,2020-10-04T11:28:43,56.40943085856135,40.97617004741757,126.9071054338683
1601800124,157000,30543000,-206710,2126,3,221,267039346,231938843,528990509,1200,9,13,12,100,193,0,9,202,11,0,2020-10-04T11:28:44,56.40942925755769,40.9761703241651,126.71338793735057
1601800125,267000,30544000,-204851,2126,3,221,267039322,231938831,528990469,1191,-17,-15,-15,108,193,0,9,210,11,0,2020-10-04T11:28:45,56.40942921432308,40.976171405939546,126.23640038104645
1601800126,377000,30545000,-202993,2126,3,221,267039323,231938828,528990458,1194,6,1,-19,111,193,0,9,218,11,0,2020-10-04T11:28:46,56.409428758471144,40.976170932820956,126.13806218411163
1601800127,218000,30546000,-201135,2126,3,221,267039314,231938834,528990460,1199,-15,-3,0,98,193,0,9,225,11,0,2020-10-04T11:28:47,56.409429071824285,40.97617262262036,126.13889730106777
1601800128,302000,30547000,-199278,2126,3,221,267039299,231938839,528990446,1206,4,11,-14,74,193,0,9,230,11,0,2020-10-04T11:28:48,56.40942897814452,40.976174827460426,125.97776067372986
1601800129,412000,30548000,-197424,2126,3,221,267039302,231938851,528990470,1214,-9,-8,16,112,193,0,9,238,11,0,2020-10-04T11:28:49,56.40942941248582,40.97617597637246,126.2337498170462
1601800130,253000,30549000,-195568,2126,3,221,267039301,231938860,528990484,1223,3,11,20,126,193,0,9,245,11,0,2020-10-04T11:28:50,56.409429723059034,40.976177183281806,126.37884602226025
1601800131,363000,30550000,-193710,2126,3,221,267039296,231938862,528990479,1224,6,-2,18,118,193,0,9,253,11,0,2020-10-04T11:28:51,56.40942965891867,40.976177958994654,126.32356641841903
1601800132,179000,30551000,-191851,2126,3,221,267039310,231938881,528990491,1219,14,17,15,114,184,0,10,1,11,0,2020-10-04T11:28:52,56.40942853236742,40.976178795540676,126.55093637299328
1601800133,288000,30552000,-189989,2126,3,221,267039339,231938909,528990505,1211,35,18,16,99,184,0,10,9,11,0,2020-10-04T11:28:53,56.409426216489464,40.97617913942491,126.890272632952
1601800134,398000,30553000,-188124,2126,3,221,267039417,231938965,528990511,1206,96,63,0,93,184,0,10,17,11,0,2020-10-04T11:28:54,56.40941936206139,40.97617770273027,127.46922198084968
1601800135,213000,30554000,-186254,2126,3,221,267039496,231938992,528990491,1210,82,8,11,113,184,0,10,21,11,0,2020-10-04T11:28:55,56.40941258195185,40.976172613160266,127.7305549581183
1601800136,322000,30555000,-184382,2126,3,221,267039559,231939006,528990521,1215,49,9,43,123,184,0,10,29,11,0,2020-10-04T11:28:56,56.40940982751475,40.97616763328284,128.29439923306887
1601800137,195000,30556000,-182502,2126,3,221,267039589,231939009,528990543,1221,43,10,57,123,184,0,10,36,11,0,2020-10-04T11:28:57,56.409409079037026,40.97616481348583,128.61385500330968
1601800138,304000,30557000,-180611,2126,3,221,267039616,231939008,528990576,1231,36,10,70,137,184,0,10,44,11,0,2020-10-04T11:28:58,56.40940924276121,40.9761618231649,128.99789941903956
1601800139,387000,30558000,-178712,2126,3,221,267039662,231939015,528990613,1246,66,25,58,137,184,0,10,49,11,0,2020-10-04T11:28:59,56.40940813966723,40.976157792993554,129.52365040424905
1601800140,229000,30559000,-176804,2126,3,221,267039653,231939015,528990603,1250,1,32,46,127,183,0,10,56,11,0,2020-10-04T11:29:00,56.40940815112989,40.97615874900086,129.40275640362302
1601800141,338000,30560000,-174897,2126,3,221,267039652,231939024,528990617,1241,17,9,27,133,183,0,10,64,11,0,2020-10-04T11:29:01,56.409408461703585,40.976159955909175,129.54785258199018
1601800142,448000,30561000,-172991,2126,3,221,267039637,231939012,528990602,1236,5,4,8,127,183,0,10,72,11,0,2020-10-04T11:29:02,56.409409152286386,40.97616008167438,129.31671083628507
1601800143,263000,30562000,-171080,2126,3,221,267039625,231938999,528990587,1226,22,2,11,95,183,0,10,76,11,0,2020-10-04T11:29:03,56.409409722486025,40.976159766472094,129.0944720789263
1601800144,373000,30563000,-169163,2126,3,221,267039584,231938987,528990584,1217,-34,-1,24,81,183,0,10,84,11,0,2020-10-04T11:29:04,56.40941247776546,40.97616265403685,128.8546904077907
1601800145,214000,30564000,-167247,2126,3,221,267039529,231938947,528990569,1198,-5,-25,0,62,183,0,10,91,11,0,2020-10-04T11:29:05,56.40941680109752,40.97616360437028,128.35488732353178
1601800146,297000,30565000,-165339,2126,3,221,267039515,231938933,528990579,1175,-7,-5,12,65,183,0,10,96,11,0,2020-10-04T11:29:06,56.40941877544836,40.97616337931582,128.328919733199
1601800147,407000,30566000,-163433,2126,3,221,267039497,231938928,528990568,1177,-3,16,-7,59,183,0,10,104,11,0,2020-10-04T11:29:07,56.40941949082182,40.97616467983949,128.14396313907096
1601800148,249000,30567000,-161526,2126,3,221,267039500,231938945,528990584,1185,8,11,17,125,183,0,10,111,11,0,2020-10-04T11:29:08,56.40941928240105,40.9761664402432,128.3514509898657
1601800149,359000,30568000,-159617,2126,3,221,267039554,231938974,528990634,1197,84,37,32,118,183,0,10,119,11,0,2020-10-04T11:29:09,56.40941729415206,40.97616425084996,129.09872399896093
1601800150,174000,30569000,-157701,2126,3,221,267039579,231938980,528990646,1209,32,15,46,140,183,0,10,123,11,0,2020-10-04T11:29:10,56.409416184050734,40.97616232906347,129.3248774885576
1601800151,284000,30570000,-155782,2126,3,221,267039541,231938962,528990596,1214,-14,1,5,72,183,0,10,131,11,0,2020-10-04T11:29:11,56.40941672901111,40.97616416416927,128.68434341466664
1601800152,394000,30571000,-153864,2126,3,221,267039517,231938953,528990577,1220,-16,-3,-9,124,183,0,10,139,11,0,2020-10-04T11:29:12,56.409417582002256,40.97616561283778,128.39317223110868
1601800153,209000,30572000,-151944,2126,3,221,267039501,231938946,528990557,1231,1,3,-9,97,183,0,10,143,11,0,2020-10-04T11:29:13,56.40941783535904,40.9761664563185,128.13434261052515
1601800154,319000,30573000,-150018,2126,3,221,267039545,231938967,528990591,1247,50,18,27,136,183,0,10,151,11,0,2020-10-04T11:29:14,56.409416009386334,40.97616435076892,128.6775404042609
1601800155,160000,30574000,-148087,2126,3,221,267039541,231938954,528990566,1258,5,5,18,141,183,0,10,158,11,0,2020-10-04T11:29:15,56.4094156308946,40.97616318578208,128.4054162427912
1601800156,269000,30575000,-146155,2126,3,221,267039564,231938960,528990585,1260,38,13,25,127,183,0,10,166,11,0,2020-10-04T11:29:16,56.40941498155055,40.97616147644169,128.6815266359938
1601800157,353000,30576000,-144217,2126,3,221,267039568,231938958,528990589,1267,28,14,35,140,183,0,10,171,11,0,2020-10-04T11:29:17,56.40941505248515,40.976160806952606,128.72429914555218
1601800158,194000,30577000,-142273,2126,3,221,267039486,231938919,528990525,1283,-51,-17,6,112,186,0,9,178,11,0,2020-10-04T11:29:18,56.40941841712703,40.97616474760787,127.70716970946219
1601800159,303000,30578000,-140328,2126,3,221,267039426,231938888,528990518,1273,-3,-16,7,52,201,0,8,186,11,0,2020-10-04T11:29:19,56.40942297883987,40.97616732974363,127.28577423473628
1601800160,413000,30579000,-138374,2126,3,221,267039385,231938862,528990480,1264,-1,8,6,95,201,0,8,194,11,0,2020-10-04T11:29:20,56.409424681911794,40.97616850513274,126.70364720578308
1601800161,227000,30580000,-136416,2126,3,221,267039372,231938852,528990478,1259,14,0,15,116,191,0,9,198,11,0,2020-10-04T11:29:21,56.4094258073351,40.97616866304913,126.59640690323634
1601800162,336000,30581000,-134455,2126,3,221,267039399,231938854,528990504,1254,53,5,33,92,183,0,10,206,11,0,2020-10-04T11:29:22,56.409425476092984,40.976166039621084,126.93302427640597
1601800163,177000,30582000,-132492,2126,3,221,267039388,231938850,528990481,1239,15,20,22,105,183,0,10,213,11,0,2020-10-04T11:29:23,56.40942515082796,40.976166718881835,126.68097298123512
1601800164,261000,30583000,-130528,2126,3,221,267039361,231938859,528990461,1229,-16,21,5,65,183,0,10,218,11,0,2020-10-04T11:29:24,56.409425240568616,40.97617068759304,126.43424367714171
1601800165,370000,30584000,-128569,2126,3,221,267039334,231938832,528990377,1214,-4,-32,-70,111,183,0,10,226,11,0,2020-10-04T11:29:25,56.409423916450855,40.976170253559964,125.52378071295371
1601800166,211000,30585000,-126618,2126,3,221,267039363,231938885,528990377,1204,52,79,-39,76,183,0,10,233,11,0,2020-10-04T11:29:26,56.409419678580996,40.97617365490641,125.83719377969932
1601800167,321000,30586000,-124665,2126,3,221,267039366,231938923,528990367,1199,6,16,19,120,183,1,10,241,11,0,2020-10-04T11:29:27,56.409417148166106,40.976177983577465,125.90428521788296
1601800168,405000,30587000,-122707,2126,3,221,267039379,231938938,528990415,1194,40,0,38,109,183,0,10,246,11,0,2020-10-04T11:29:28,56.40941806299422,40.976178437152754,126.41285084892202
1601800169,247000,30588000,-120742,2126,3,221,267039387,231938958,528990415,1173,11,23,18,102,183,0,10,253,11,0,2020-10-04T11:29:29,56.40941663004032,40.9761800333358,126.51882545935182
1601800170,357000,30589000,-118770,2126,3,221,267039375,231938957,528990403,1170,2,-3,2,83,183,0,10,5,11,0,2020-10-04T11:29:30,56.409416760626925,40.976181185715255,126.36511236414762
1601800171,172000,30590000,-116793,2126,3,221,267039401,231938939,528990430,1180,45,-28,24,94,183,0,10,9,11,0,2020-10-04T11:29:31,56.409417516667084,40.97617622254188,126.63332405678851
1601800172,281000,30591000,-114810,2126,3,221,267039423,231938944,528990484,1189,10,21,56,130,183,0,10,17,11,0,2020-10-04T11:29:32,56.40941871184877,40.976174497124866,127.19318378610342
1601800173,391000,30592000,-112822,2126,3,221,267039373,231938947,528990398,1197,-18,38,-38,117,183,0,10,25,11,0,2020-10-04T11:29:33,56.40941711571731,40.976180175177454,126.2788283960671
1601800174,232000,30593000,-110842,2126,3,221,267039381,231938956,528990354,1191,37,-11,-43,87,183,0,10,32,11,0,2020-10-04T11:29:34,56.409414036217754,40.9761804260779,125.9783703062308
1601800175,316000,30594000,-108865,2126,3,221,267039378,231938949,528990296,1194,4,16,-50,120,183,0,10,37,11,0,2020-10-04T11:29:35,56.40941166729124,40.97617988865849,125.4572967507997
1601800176,157000,30595000,-106882,2126,3,221,267039393,231938963,528990344,1200,15,5,20,131,183,0,10,44,11,0,2020-10-04T11:29:36,56.40941251821631,40.97618000748893,125.97058838018312
1601800177,267000,30596000,-104890,2126,3,221,267039373,231938974,528990349,1199,-12,37,11,71,183,0,10,52,11,0,2020-10-04T11:29:37,56.409413356623,40.976183477234486,125.96860684551844
1601800178,376000,30597000,-102892,2126,3,221,267039364,231938973,528990381,1195,21,-21,34,93,183,0,10,60,11,0,2020-10-04T11:29:38,56.4094155039303,40.97618431094454,126.193950025426
1601800179,190000,30598000,-100885,2126,3,221,267039348,231938969,528990393,1202,1,17,23,128,183,0,10,64,11,0,2020-10-04T11:29:39,56.40941720005375,40.976185521321604,126.21256813423838
1601800180,300000,30599000,-98866,2126,3,221,267039333,231938984,528990392,1210,7,45,12,104,183,0,10,72,11,0,2020-10-04T11:29:40,56.4094172617259,40.976188949145275,126.19600252342666
1601800181,409000,30600000,-96837,2126,3,221,267039332,231938974,528990409,1203,22,-6,21,107,183,0,10,80,11,0,2020-10-04T11:29:41,56.40941865341647,40.97618783238443,126.297158207272
1601800182,224000,30601000,-94799,2126,3,221,267039340,231938960,528990421,1204,20,12,12,130,183,0,10,84,11,0,2020-10-04T11:29:42,56.409419484586046,40.9761852704213,126.37974428755828
1601800183,333000,30602000,-92754,2126,3,221,267039343,231938961,528990427,1209,16,11,19,143,183,0,10,92,11,0,2020-10-04T11:29:43,56.40941956420383,40.976185074050186,126.44588388159877
1601800184,174000,30603000,-90699,2126,3,221,267039390,231938984,528990488,1222,57,21,41,149,183,0,10,99,11,0,2020-10-04T11:29:44,56.40941881218694,40.976182894424824,127.23378174441076
1601800185,283000,30604000,-88629,2126,3,221,267039413,231939000,528990508,1237,42,37,29,146,183,0,10,107,11,0,2020-10-04T11:29:45,56.40941772197016,40.9761824080667,127.55450164285014
1601800186,366000,30605000,-86548,2126,3,221,267039405,231939008,528990522,1244,11,13,23,137,183,0,10,112,11,0,2020-10-04T11:29:46,56.409418476956965,40.97618423623896,127.66673108615777
1601800187,207000,30606000,-84459,2126,3,221,267039378,231939003,528990523,1226,0,5,7,105,183,0,10,119,11,0,2020-10-04T11:29:47,56.40942029687244,40.97618649277217,127.54414320857067
1601800188,316000,30607000,-82363,2126,3,221,267039375,231938989,528990538,1241,8,-23,13,99,192,0,9,127,11,0,2020-10-04T11:29:48,56.40942189837439,40.97618509926416,127.60577294851343
1601800189,424000,30608000,-80262,2126,3,221,267039428,231939020,528990583,1269,41,35,11,154,192,0,9,135,11,0,2020-10-04T11:29:49,56.409419620066096,40.97618326068726,128.3144742220882
1601800190,239000,30609000,-78159,2126,3,221,267039532,231939087,528990693,1277,91,37,46,148,192,0,9,139,11,0,2020-10-04T11:29:50,56.40941592483959,40.97618040747324,129.9082649923342
1601800191,348000,30610000,-76044,2126,3,221,267039493,231939045,528990636,1263,22,-1,4,109,200,0,8,147,11,0,2020-10-04T11:29:51,56.409417355820636,40.97617941364345,129.11817252994928
1601800192,188000,30611000,-73924,2126,3,221,267039498,231939053,528990632,1271,6,21,-8,79,200,0,8,154,11,0,2020-10-04T11:29:52,56.40941648223425,40.97617986091479,129.13476044060442
1601800193,271000,30612000,-71795,2126,3,221,267039474,231939047,528990616,1293,-12,-2,-2,143,200,0,8,159,11,0,2020-10-04T11:29:53,56.40941733711398,40.97618167647936,128.8794634595644
1601800194,380000,30613000,-69657,2126,3,221,267039548,231939100,528990676,1304,63,28,18,149,200,0,8,167,11,0,2020-10-04T11:29:54,56.40941353878779,40.97618029778215,129.88064775411848
1601800195,220000,30614000,-67505,2126,3,221,267039526,231939085,528990658,1312,7,-3,0,86,200,0,8,174,11,0,2020-10-04T11:29:55,56.40941462283938,40.97618080021513,129.58439300465974
1601800196,328000,30615000,-65349,2126,3,221,267039500,231939070,528990655,1288,-24,-5,-13,113,192,0,9,182,11,0,2020-10-04T11:29:56,56.40941667809098,40.97618172754061,129.39638218687983
1601800197,411000,30616000,-63190,2126,3,221,267039491,231939069,528990653,1284,-12,-7,-11,126,192,0,9,187,11,0,2020-10-04T11:29:57,56.409417136092785,40.976182561250255,129.3385012333002
1601800198,252000,30617000,-61026,2126,3,221,267039515,231939081,528990667,1293,24,2,5,124,192,0,9,194,11,0,2020-10-04T11:29:58,56.40941588750749,40.97618147947586,129.59890561465673
1601800199,361000,30618000,-58853,2126,3,221,267039507,231939075,528990669,1308,3,-6,13,107,191,0,9,202,11,0,2020-10-04T11:29:59,56.40941673305032,40.976181595470614,129.560382417159
1601800200,175000,30619000,-56673,2126,3,221,267039529,231939090,528990692,1315,24,21,12,143,191,0,9,206,11,0,2020-10-04T11:30:00,56.409415897425724,40.976181093037546,129.8982877702924
1601800201,284000,30620000,-54487,2126,3,221,267039565,231939103,528990718,1338,37,-6,19,127,191,0,9,214,11,0,2020-10-04T11:30:01,56.409414518254074,40.976178858884715,130.31240525319876
1601800202,393000,30621000,-52295,2126,3,221,267039662,231939137,528990809,1347,83,18,48,144,191,0,9,222,11,0,2020-10-04T11:30:02,56.40941189320513,40.97617271339078,131.59896288434317
1601800203,234000,30622000,-50090,2126,3,221,267039744,231939176,528990879,1356,77,40,56,162,191,0,9,229,11,0,2020-10-04T11:30:03,56.40940882667904,40.97616877273662,132.66607307143616
1601800204,316000,30623000,-47874,2126,3,221,267039743,231939159,528990877,1347,32,16,42,146,191,0,9,234,11,0,2020-10-04T11:30:04,56.40940961773578,40.976166799888674,132.5835608604995
1601800205,156000,30624000,-45650,2126,3,221,267039763,231939169,528990876,1348,43,15,29,147,191,0,9,241,11,0,2020-10-04T11:30:05,56.409407947900235,40.9761658984116,132.69504966968177
1601800206,265000,30625000,-43417,2126,3,221,267039862,231939210,528990919,1365,104,36,38,158,191,0,9,249,11,0,2020-10-04T11:30:06,56.409402481604154,40.97616039656648,133.6155111340043
1601800207,374000,30626000,-41172,2126,3,221,267039987,231939283,528990993,1380,110,58,65,165,191,0,9,1,11,0,2020-10-04T11:30:07,56.409395517303906,40.97615604647235,135.01890193627534
1601800208,189000,30627000,-38913,2126,3,221,267039982,231939303,528991006,1377,36,26,51,143,281,0,7,5,11,0,2020-10-04T11:30:08,56.40939546449772,40.97615902355123,135.17886742512434
1601800209,298000,30628000,-36646,2126,3,221,267039963,231939307,528991011,1364,24,2,27,127,281,0,7,13,11,0,2020-10-04T11:30:09,56.40939658981429,40.976161530979375,135.15566721059005
1601800210,407000,30629000,-34369,2126,3,221,267039949,231939298,528990997,1373,12,12,17,146,281,0,7,21,11,0,2020-10-04T11:30:10,56.409397126434655,40.976161917416256,134.94791636928392
1601800211,222000,30630000,-32082,2126,3,221,267039949,231939299,528990993,1391,22,9,18,165,281,0,7,25,11,0,2020-10-04T11:30:11,56.4093968786373,40.976162039714474,134.91822383025695
1601800212,330000,30631000,-29783,2126,3,221,267040002,231939319,528991045,1412,58,23,44,164,207,0,8,33,11,0,2020-10-04T11:30:12,56.409395487744796,40.97615885586458,135.645328722663
1601800213,171000,30632000,-27473,2126,3,221,267040014,231939327,528991014,1397,70,35,13,129,191,0,9,40,11,0,2020-10-04T11:30:13,56.40939287729634,40.97615855957548,135.46624228432822
1601800214,279000,30633000,-25154,2126,3,221,267040008,231939317,528990975,1374,57,-5,8,102,207,0,8,48,11,0,2020-10-04T11:30:14,56.40939176900031,40.9761579739308,135.08002633887756
1601800215,362000,30634000,-22826,2126,3,221,267040056,231939332,528990986,1378,56,36,15,141,281,0,7,53,11,0,2020-10-04T11:30:15,56.40938886868314,40.976154709705405,135.42657176040464
1601800216,202000,30635000,-20486,2126,3,221,267040058,231939332,528990961,1393,28,12,17,154,281,0,7,60,11,0,2020-10-04T11:30:16,56.409387513588634,40.97615449725966,135.22667274280113
1601800217,311000,30636000,-18139,2126,3,221,267040045,231939304,528990943,1389,3,8,27,145,200,0,8,68,11,0,2020-10-04T11:30:17,56.40938872704609,40.97615245380734,134.9208475023198
1601800218,420000,30637000,-15785,2126,3,221,267040038,231939283,528990935,1379,35,-13,8,75,200,0,8,76,11,0,2020-10-04T11:30:18,56.409389755090075,40.97615062910497,134.74878092382846
1601800219,233000,30638000,-13423,2126,3,221,267040004,231939248,528990905,1357,-3,-21,15,61,191,0,9,80,11,0,2020-10-04T11:30:19,56.40939190178468,40.97614996024504,134.22988211063543
1601800220,342000,30639000,-11052,2126,3,221,267040024,231939235,528990927,1343,37,7,19,124,191,0,9,88,11,0,2020-10-04T11:30:20,56.40939250299578,40.976146245910186,134.44952109152175
1601800221,182000,30640000,-8669,2126,3,221,267040065,231939262,528990975,1338,53,32,39,137,191,0,9,95,11,0,2020-10-04T11:30:21,56.409391247727015,40.97614519282474,135.11857737707908
1601800222,264000,30641000,-6279,2126,3,221,267040129,231939301,528991029,1337,72,37,60,142,191,0,9,100,11,0,2020-10-04T11:30:22,56.409388402871585,40.976143164192706,135.9772202077589
1601800223,373000,30642000,-3879,2126,3,221,267040140,231939302,528991037,1343,39,23,47,149,281,0,7,108,11,0,2020-10-04T11:30:23,56.40938813002349,40.97614211803972,136.09343588004373
1601800224,214000,30643000,-1470,2126,3,221,267040162,231939314,528991066,1373,45,18,40,175,281,0,7,115,11,0,2020-10-04T11:30:24,56.4093877396806,40.976141248715905,136.47043818395707
1601800225,323000,30644000,953,2126,3,221,267040178,231939316,528991085,1423,29,15,37,186,281,0,7,123,11,0,2020-10-04T11:30:25,56.40938768191823,40.97613979374718,136.70279800830087
1601800226,405000,30645000,3388,2126,3,221,267040174,231939318,528991088,1463,21,18,23,186,281,0,7,128,11,0,2020-10-04T11:30:26,56.409387958781465,40.976140463234834,136.71833632551844
1601800227,246000,30646000,5833,2126,3,221,267040143,231939309,528991089,1463,16,16,12,161,281,0,7,135,11,0,2020-10-04T11:30:27,56.40939020083575,40.97614265545864,136.5645286012776
1601800228,354000,30647000,8288,2126,3,221,267040125,231939304,528991085,1463,20,5,10,149,281,0,7,143,11,0,2020-10-04T11:30:28,56.40939126400548,40.97614395597868,136.43788278625323
1601800229,167000,30648000,10755,2126,3,221,267040100,231939287,528991078,1467,7,-4,7,126,281,0,7,147,11,0,2020-10-04T11:30:29,56.40939316214468,40.97614453248025,136.213472475739
